SALE TYPE,SOLD DATE,PROPERTY TYPE,ADDRESS,CITY,STATE OR PROVINCE,ZIP OR POSTAL CODE,PRICE,BEDS,BATHS,LOCATION,SQUARE FEET,LOT SIZE,YEAR BUILT,DAYS ON MARKET,$/SQUARE FEET,HOA/MONTH,STATUS,NEXT OPEN HOUSE START TIME,NEXT OPEN HOUSE END TIME,URL (SEE https://www.redfin.com/buy-a-home/comparative-market-analysis FOR INFO ON PRICING),SOURCE,MLS#,FAVORITE,INTERESTED,LATITUDE,LONGITUDE
MLS Listing,,Single Family Residential,6544 Little Falls Dr,San Jose,CA,95120,2378999,4,2.5,SAN JOSE,2364,10610,1965,3,1006,,Active,September-30-2023 02:00 PM,September-30-2023 04:00 PM,https://www.redfin.com/CA/San-Jose/6544-Little-Falls-Dr-95120/home/1317823,MLSListings,ML81940360,N,Y,37.216909,-121.8700034
MLS Listing,,Condo/Co-op,922 Gaspar Vis,San Jose,CA,95126,1200000,4,4.0,SAN JOSE,1930,984,2009,3,622,318,Active,September-30-2023 01:00 PM,September-30-2023 04:00 PM,https://www.redfin.com/CA/San-Jose/922-Gaspar-Vis-95126/home/28895153,MLSListings,ML81940163,N,Y,37.3213381,-121.9041297
MLS Listing,,Single Family Residential,4993 Grimsby Dr,San Jose,CA,95130,2498888,4,2.5,SAN JOSE,1955,5636,1965,3,1278,,Active,September-30-2023 11:00 AM,September-30-2023 02:00 PM,https://www.redfin.com/CA/San-Jose/4993-Grimsby-Dr-95130/home/1697470,MLSListings,ML81943157,N,Y,37.2804434,-121.9886765
MLS Listing,,Single Family Residential,818 N 13th St,San Jose,CA,95112,1118000,3,1.0,SAN JOSE,1316,5404,1910,4,850,,Active,,,https://www.redfin.com/CA/San-Jose/818-N-13th-St-95112/home/1548418,MLSListings,ML81943043,N,Y,37.3578108,-121.8895021
MLS Listing,,Single Family Residential,2451 Cory Ave,San Jose,CA,95128,899999,3,1.0,SAN JOSE,1040,7230,1950,7,865,,Active,,,https://www.redfin.com/CA/San-Jose/2451-Cory-Ave-95128/home/1774434,MLSListings,ML81942790,N,Y,37.3319824,-121.9487775
MLS Listing,,Single Family Residential,1037 Keltner Ave,San Jose,CA,95117,1498000,4,2.0,SAN JOSE,1236,6613,1958,9,1212,,Active,September-30-2023 01:00 PM,September-30-2023 04:00 PM,https://www.redfin.com/CA/San-Jose/1037-Keltner-Ave-95117/home/749377,MLSListings,ML81942573,N,Y,37.3077923,-121.9681735
MLS Listing,,Townhouse,1882 Winding Creek Ct,San Jose,CA,95148,858000,2,2.5,SAN JOSE,1473,1974,1984,10,582,466,Active,September-30-2023 02:00 PM,September-30-2023 04:00 PM,https://www.redfin.com/CA/San-Jose/1882-Winding-Creek-Ct-95148/home/1109067,MLSListings,ML81942039,N,Y,37.3503339,-121.794899
MLS Listing,,Single Family Residential,1475 Mckendrie St,San Jose,CA,95126,2300000,6,4.0,SAN JOSE,3096,10376,1925,23,743,,Active,,,https://www.redfin.com/CA/San-Jose/1475-McKendrie-St-95126/home/1719627,MLSListings,ML81938281,N,Y,37.3375957,-121.9306671
MLS Listing,,Condo/Co-op,1060 S 3rd St #381,San Jose,CA,95112,490000,1,1.0,SAN JOSE,667,,2005,37,735,575,Active,,,https://www.redfin.com/CA/San-Jose/1060-S-3rd-St-95112/unit-381/home/2124611,MLSListings,ML81939622,N,Y,37.3217979,-121.8760512
MLS Listing,,Condo/Co-op,1375 Lick Ave #1030,San Jose,CA,95110,615000,1,1.0,SAN JOSE,687,,2009,59,895,515,Active,,,https://www.redfin.com/CA/San-Jose/1375-Lick-Ave-95110/unit-1030/home/17290531,MLSListings,ML81936870,N,Y,37.311013,-121.882429
MLS Listing,,Condo/Co-op,38 N Almaden Blvd #403,San Jose,CA,95110,699888,1,1.0,SAN JOSE,868,,2008,86,806,577,Active,,,https://www.redfin.com/CA/San-Jose/38-N-Almaden-Blvd-95110/unit-403/home/17288134,MLSListings,ML81933877,N,Y,37.3348687,-121.8957681
Redfin Data,,Single Family Residential,6816 Avenida Rotella,San Jose,CA,95139,1100000,3,2.0,San Jose,1184,4880,1970,1,929,63,Pre On-Market,,,https://www.redfin.com/CA/San-Jose/6816-Avenida-Rotella-95139/home/1680242,Coming Soon,95129,N,Y,37.2300944,-121.7731635
Redfin Data,,Condo/Co-op,706 Avenue One,San Jose,CA,95123,1138000,3,3.5,San Jose,1712,1153,2016,3,665,,Pre On-Market,,,https://www.redfin.com/CA/San-Jose/706-Avenue-One-95123/home/95957859,Coming Soon,95096,N,Y,37.2433675,-121.797521
Redfin Data,,Single Family Residential,1555 Mission Springs Cir,San Jose,CA,95131,1600000,4,2.5,San Jose,1768,3500,1997,10,905,,Pre On-Market,,,https://www.redfin.com/CA/San-Jose/1555-Mission-Springs-Cir-95131/home/686616,Coming Soon,94988,N,Y,37.3838032,-121.8870905
MLS Listing,,Condo/Co-op,8371 Riesling Way,San Jose,CA,95135,698888,2,2.0,SAN JOSE,1370,,1978,1,510,1000,Active,,,https://www.redfin.com/CA/San-Jose/8371-Riesling-Way-95135/home/1679004,MLSListings,ML81940666,N,Y,37.2837353,-121.7513286
MLS Listing,,Single Family Residential,3216 Stephanie Ct,San Jose,CA,95132,1200888,3,1.5,SAN JOSE,1080,6087,1971,1,1112,,Active,October-1-2023 01:00 PM,October-1-2023 04:00 PM,https://www.redfin.com/CA/San-Jose/3216-Stephanie-Ct-95132/home/1756931,MLSListings,ML81943648,N,Y,37.4073447,-121.8585087
MLS Listing,,Multi-Family (2-4 Unit),3175 Locke Dr,San Jose,CA,95111,1628888,8,4.0,SAN JOSE,3369,9963,1971,1,483,,Active,,,https://www.redfin.com/CA/San-Jose/3175-Locke-Dr-95111/home/1555932,MLSListings,ML81943636,N,Y,37.296447,-121.8279038
MLS Listing,,Single Family Residential,3133 Stevens Ct,San Jose,CA,95148,1500000,4,2.0,SAN JOSE,1672,9300,1978,1,897,,Active,September-30-2023 01:00 PM,September-30-2023 04:00 PM,https://www.redfin.com/CA/San-Jose/3133-Stevens-Ct-95148/home/738193,MLSListings,ML81943625,N,Y,37.3209634,-121.7840303
MLS Listing,,Single Family Residential,6184 Glen Harbor Dr,San Jose,CA,95123,1349000,3,2.0,SAN JOSE,1740,5755,1968,1,775,,Active,September-30-2023 01:30 PM,September-30-2023 04:00 PM,https://www.redfin.com/CA/San-Jose/6184-Glen-Harbor-Dr-95123/home/894930,MLSListings,ML81943609,N,Y,37.235876,-121.8174932
MLS Listing,,Condo/Co-op,297 Sumba Ct,San Jose,CA,95123,675000,2,2.0,SAN JOSE,1122,,1985,1,602,446,Active,September-30-2023 01:00 PM,September-30-2023 03:00 PM,https://www.redfin.com/CA/San-Jose/297-Sumba-Ct-95123/home/994997,MLSListings,ML81942957,N,Y,37.2554313,-121.829902
MLS Listing,,Single Family Residential,2279 Maximilian Dr,San Jose,CA,95130,1749000,4,2.0,SAN JOSE,1486,6000,1962,1,1177,,Active,September-30-2023 01:00 PM,September-30-2023 04:00 PM,https://www.redfin.com/CA/San-Jose/2279-Maximilian-Dr-95130/home/818069,MLSListings,ML81943620,N,Y,37.279734,-121.966353
MLS Listing,,Single Family Residential,4010 Timberline Dr,San Jose,CA,95121,1690000,4,3.0,SAN JOSE,1870,9361,1964,1,904,32,Active,September-30-2023 01:00 PM,September-30-2023 04:00 PM,https://www.redfin.com/CA/San-Jose/4010-Timberline-Dr-95121/home/1449709,MLSListings,ML81943597,N,Y,37.3064236,-121.7805588
MLS Listing,,Single Family Residential,3398 San Mardo Ave,San Jose,CA,95127,950000,3,1.0,SAN JOSE,1075,4991,1954,1,884,,Active,September-30-2023 02:00 PM,September-30-2023 04:00 PM,https://www.redfin.com/CA/San-Jose/3398-San-Mardo-Ave-95127/home/1730776,MLSListings,ML81943444,N,Y,37.3894086,-121.8361457
MLS Listing,,Single Family Residential,330 Crestview Dr,Santa Clara,CA,95050,2388800,4,3.5,SANTA CLARA,2330,7198,1956,1,1025,,Active,September-30-2023 01:00 PM,September-30-2023 04:00 PM,https://www.redfin.com/CA/Santa-Clara/330-Crestview-Dr-95050/home/1777068,MLSListings,ML81943577,N,Y,37.3316866,-121.9538213
MLS Listing,,Single Family Residential,6170 De Palma Ct,San Jose,CA,95120,2300000,5,2.5,SAN JOSE,2703,16388,1981,1,851,,Active,September-30-2023 01:00 PM,September-30-2023 04:00 PM,https://www.redfin.com/CA/San-Jose/6170-De-Palma-Ct-95120/home/851243,MLSListings,ML81943576,N,Y,37.2227946,-121.8951237
MLS Listing,,Single Family Residential,3145 Dorcich St,Santa Clara,CA,95050,2488000,5,3.0,SANTA CLARA,2487,10202,1955,1,1000,,Active,September-30-2023 01:00 PM,September-30-2023 04:00 PM,https://www.redfin.com/CA/Santa-Clara/3145-Dorcich-St-95050/home/1263251,MLSListings,ML81943575,N,Y,37.3252485,-121.951866
MLS Listing,,Mobile/Manufactured Home,203 Mountain Springs Dr #203,San Jose,CA,95136,489000,2,2.0,SAN JOSE,1344,,1980,1,364,,Active,September-30-2023 02:00 PM,September-30-2023 04:00 PM,https://www.redfin.com/CA/San-Jose/203-Mountain-Springs-Dr-95136/unit-203/home/18793055,MLSListings,ML81943147,N,Y,37.2821578,-121.862704
MLS Listing,,Mobile/Manufactured Home,165 Blossom Hill Rd #97,San Jose,CA,95123,389000,3,2.0,SAN JOSE,1100,,2014,1,354,,Active,September-30-2023 03:00 PM,September-30-2023 06:00 PM,https://www.redfin.com/CA/San-Jose/165-Blossom-Hill-Rd-95123/unit-97/home/187755625,MLSListings,ML81943570,N,Y,37.252241,-121.809154
MLS Listing,,Single Family Residential,1575 Monteval Ln,San Jose,CA,95120,1698000,3,2.0,SAN JOSE,1432,8063,1965,1,1186,,Active,September-30-2023 01:00 PM,September-30-2023 04:00 PM,https://www.redfin.com/CA/San-Jose/1575-Monteval-Ln-95120/home/976531,MLSListings,ML81943569,N,Y,37.226281,-121.9017287
MLS Listing,,Mobile/Manufactured Home,275 Burnett Ave #171,Morgan Hill,CA,95037,279000,2,2.0,MORGAN HILL,1680,,1977,1,166,,Active,,,https://www.redfin.com/CA/Morgan-Hill/275-Burnett-Ave-95037/unit-171/home/1450763,MLSListings,ML81943482,N,Y,37.1577177,-121.6726083
MLS Listing,,Single Family Residential,343 Sunpark Ln,San Jose,CA,95136,1388000,4,2.0,SAN JOSE,1581,5601,1971,1,878,,Active,September-30-2023 01:00 PM,September-30-2023 04:00 PM,https://www.redfin.com/CA/San-Jose/343-Sunpark-Ln-95136/home/1756908,MLSListings,ML81943562,N,Y,37.2676278,-121.8451192
MLS Listing,,Single Family Residential,3565 Chablis Cir,San Jose,CA,95132,1695000,4,3.0,SAN JOSE,2082,6719,1964,1,814,,Active,,,https://www.redfin.com/CA/San-Jose/3565-Chablis-Cir-95132/home/959560,MLSListings,ML81941922,N,Y,37.401238,-121.8376457
MLS Listing,,Single Family Residential,2116 Cully Pl,San Jose,CA,95124,3260000,4,4.5,SAN JOSE,3400,5440,2023,1,959,239,Active,September-30-2023 11:00 AM,September-30-2023 04:00 PM,https://www.redfin.com/CA/San-Jose/2116-Cully-Pl-95124/home/181207670,MLSListings,ML81943549,N,Y,37.2647687,-121.9354558
MLS Listing,,Single Family Residential,7242 Gold Creek Way,San Jose,CA,95120,2950000,4,2.5,SAN JOSE,3140,16028,1983,1,939,,Active,September-30-2023 01:00 PM,September-30-2023 04:00 PM,https://www.redfin.com/CA/San-Jose/7242-Gold-Creek-Way-95120/home/1730279,MLSListings,ML81943546,N,Y,37.1964116,-121.8358668
MLS Listing,,Single Family Residential,2117 Cully Pl,San Jose,CA,95124,3195000,4,4.5,SAN JOSE,3281,4803,2023,1,974,239,Active,September-30-2023 11:00 AM,September-30-2023 04:00 PM,https://www.redfin.com/CA/San-Jose/2117-Cully-Pl-95124/home/181207660,MLSListings,ML81943547,N,Y,37.2651309,-121.9355511
MLS Listing,,Single Family Residential,3294 Palatino Way,San Jose,CA,95135,2299000,4,2.5,SAN JOSE,2011,5571,1996,1,1143,,Active,September-30-2023 02:00 PM,September-30-2023 05:00 PM,https://www.redfin.com/CA/San-Jose/3294-Palatino-Way-95135/home/961014,MLSListings,ML81942492,N,Y,37.309951,-121.75948
MLS Listing,,Townhouse,2115 Vincenzo Walkway,San Jose,CA,95133,1289999,4,4.0,SAN JOSE,1722,651,2014,1,749,213,Active,September-30-2023 01:30 PM,September-30-2023 04:30 PM,https://www.redfin.com/CA/San-Jose/2115-Vincenzo-Walkway-95133/home/95956410,MLSListings,ML81943513,N,Y,37.3819006,-121.8641758
MLS Listing,,Single Family Residential,3982 Hamilton Park Dr,San Jose,CA,95130,1860000,4,2.0,SAN JOSE,1528,6100,1967,1,1217,,Active,September-30-2023 01:00 PM,September-30-2023 04:00 PM,https://www.redfin.com/CA/San-Jose/3982-Hamilton-Park-Dr-95130/home/756726,MLSListings,ML81943328,N,Y,37.295507,-121.9725943
MLS Listing,,Single Family Residential,2175 Ramish Dr,San Jose,CA,95131,1299999,4,2.0,SAN JOSE,1573,6642,1971,1,826,,Active,September-30-2023 01:30 PM,September-30-2023 04:00 PM,https://www.redfin.com/CA/San-Jose/2175-Ramish-Dr-95131/home/1211782,MLSListings,ML81942628,N,Y,37.387825,-121.8701785
MLS Listing,,Single Family Residential,4148 Carola Ave,San Jose,CA,95130,1888000,3,2.0,SAN JOSE,1464,7404,1967,1,1290,,Active,September-30-2023 01:00 PM,September-30-2023 04:00 PM,https://www.redfin.com/CA/San-Jose/4148-Carola-Ave-95130/home/925896,MLSListings,ML81942865,N,Y,37.296663,-121.9750601
MLS Listing,,Townhouse,5709 Chesbro Ave,San Jose,CA,95119,888000,4,2.5,SAN JOSE,1848,1848,1982,1,481,525,Active,September-30-2023 02:00 PM,September-30-2023 04:30 PM,https://www.redfin.com/CA/San-Jose/5709-Chesbro-Ave-95123/home/698611,MLSListings,ML81941729,N,Y,37.2485593,-121.8428069
MLS Listing,,Single Family Residential,1816 La Porte Ave,San Jose,CA,95122,950000,3,2.0,San Jose,1040,5140,1959,1,913,,Active,,,https://www.redfin.com/CA/San-Jose/1816-La-Porte-Ave-95122/home/1757844,MetroList,223094731,N,Y,37.3344229,-121.833598
MLS Listing,,Single Family Residential,3370 Mount Logan Dr,San Jose,CA,95127,949000,3,2.0,SAN JOSE,1400,4997,1960,1,678,,Active,September-30-2023 01:30 PM,September-30-2023 04:30 PM,https://www.redfin.com/CA/San-Jose/3370-Mount-Logan-Dr-95127/home/1759319,MLSListings,ML81943005,N,Y,37.3542071,-121.8060582
MLS Listing,,Single Family Residential,4189 Kingspark Dr,San Jose,CA,95136,1338888,4,3.0,SAN JOSE,1793,5874,1971,1,747,515,Active,September-30-2023 03:30 PM,September-30-2023 04:30 PM,https://www.redfin.com/CA/San-Jose/4189-Kingspark-Dr-95136/home/1533601,MLSListings,ML81943490,N,Y,37.2723489,-121.8399158
MLS Listing,,Single Family Residential,1034 Glithero Ct,San Jose,CA,95112,1399000,4,2.0,San Jose,1405,6830,1977,1,996,,Active,September-30-2023 01:00 PM,September-30-2023 04:00 PM,https://www.redfin.com/CA/San-Jose/1034-Glithero-Ct-95112/home/1198054,BAREIS,323910413,N,Y,37.3576382,-121.8770518
MLS Listing,,Condo/Co-op,4770 Hatfield Ww #3,San Jose,CA,95124,675000,2,1.0,SAN JOSE,903,,1973,1,748,410,Active,October-1-2023 01:00 PM,October-1-2023 04:00 PM,https://www.redfin.com/CA/San-Jose/4770-Hatfield-Walkway-95124/unit-3/home/918680,MLSListings,ML81943476,N,Y,37.251376,-121.941175
MLS Listing,,Single Family Residential,915 Coleman Ave,San Jose,CA,95110,1299000,4,1.0,SAN JOSE,1845,10094,1935,1,704,,Active,,,https://www.redfin.com/CA/San-Jose/915-Coleman-Ave-95110/home/857041,MLSListings,ML81943474,N,Y,37.346474,-121.9159989
MLS Listing,,Single Family Residential,677 New Compton Dr,San Jose,CA,95136,1549000,5,3.0,SAN JOSE,2533,5990,1976,1,612,,Active,September-30-2023 01:00 PM,September-30-2023 04:00 PM,https://www.redfin.com/CA/San-Jose/677-New-Compton-Dr-95136/home/1702793,MLSListings,ML81942987,N,Y,37.2643911,-121.8516577
MLS Listing,,Condo/Co-op,3031 Lina St #6,San Jose,CA,95136,869000,2,1.5,SAN JOSE,816,,2022,1,1065,431,Active,September-30-2023 01:00 PM,September-30-2023 04:00 PM,https://www.redfin.com/CA/San-Jose/3031-Lina-St-95136/unit-6/home/176539654,MLSListings,ML81942253,N,Y,37.2852438,-121.8558613
MLS Listing,,Condo/Co-op,2867 S Bascom Ave #603,Campbell,CA,95008,579900,1,1.0,CAMPBELL,668,,1984,1,868,480,Active,September-30-2023 01:00 PM,September-30-2023 03:00 PM,https://www.redfin.com/CA/San-Jose/2867-S-Bascom-Ave-95124/unit-603/home/1333723,MLSListings,ML81943448,N,Y,37.270604,-121.938345
MLS Listing,,Condo/Co-op,3034 Empoli St #9,San Jose,CA,95136,1188000,3,2.0,SAN JOSE,1200,1095,2023,1,990,654,Active,September-30-2023 01:00 PM,September-30-2023 04:00 PM,https://www.redfin.com/CA/San-Jose/3034-Empoli-St-95136/unit-9/home/176539685,MLSListings,ML81943449,N,Y,37.285404,-121.856322
MLS Listing,,Single Family Residential,328 Heritage View Ter,San Jose,CA,95125,1249000,3,2.5,SAN JOSE,1776,1546,2004,1,703,200,Active,September-30-2023 01:00 PM,September-30-2023 04:00 PM,https://www.redfin.com/CA/San-Jose/328-Heritage-View-Ter-95125/home/167457629,MLSListings,ML81943446,N,Y,37.2954565,-121.8651337
MLS Listing,,Multi-Family (5+ Unit),295 E Younger Ave,San Jose,CA,95112,3200000,17,10.0,SAN JOSE,6636,8989,1957,1,482,,Active,,,https://www.redfin.com/CA/San-Jose/295-E-Younger-Ave-95112/home/187738616,MLSListings,ML81943445,N,Y,37.3582167,-121.8987278
MLS Listing,,Single Family Residential,919 Jeanne Ave,San Jose,CA,95116,975000,3,2.0,SAN JOSE,1606,5115,1955,1,607,,Active,September-30-2023 11:00 AM,September-30-2023 03:00 PM,https://www.redfin.com/CA/San-Jose/919-Jeanne-Ave-95116/home/1287288,MLSListings,ML81943443,N,Y,37.3348927,-121.862154
MLS Listing,,Single Family Residential,480 S Genevieve Ln,San Jose,CA,95128,1498000,3,1.5,SAN JOSE,1640,9595,1951,1,913,,Active,September-30-2023 02:00 PM,September-30-2023 04:00 PM,https://www.redfin.com/CA/San-Jose/480-S-Genevieve-Ln-95128/home/1498602,MLSListings,ML81943438,N,Y,37.3191851,-121.9419115
MLS Listing,,Single Family Residential,3456 Kersten Dr,San Jose,CA,95124,1300000,3,2.0,SAN JOSE,1210,6100,1959,1,1074,,Active,,,https://www.redfin.com/CA/San-Jose/3456-Kersten-Dr-95124/home/854914,MLSListings,ML81943435,N,Y,37.263689,-121.913941
MLS Listing,,Mobile/Manufactured Home,3083 Oakbridge Dr #3083,San Jose,CA,95121,349000,3,,SAN JOSE,1440,,1966,1,242,,Active,,,https://www.redfin.com/CA/San-Jose/3083-Oakbridge-Dr-95121/unit-3083/home/21854579,MLSListings,ML81943431,N,Y,37.3051057,-121.8150861
MLS Listing,,Condo/Co-op,611 Balfour Dr,San Jose,CA,95111,585000,2,1.5,SAN JOSE,867,,1983,1,675,367,Active,September-30-2023 12:00 PM,September-30-2023 04:00 PM,https://www.redfin.com/CA/San-Jose/611-Balfour-Dr-95111/home/1519212,MLSListings,ML81943013,N,Y,37.30051,-121.839976
MLS Listing,,Single Family Residential,2033 Woodglen Dr,San Jose,CA,95130,2098000,4,2.5,SAN JOSE,2256,4295,2005,1,930,85,Active,September-30-2023 01:30 PM,September-30-2023 04:00 PM,https://www.redfin.com/CA/San-Jose/2033-Woodglen-Dr-95130/home/2122032,MLSListings,ML81943422,N,Y,37.2852165,-121.9847451
MLS Listing,,Condo/Co-op,247 N Capitol Ave #185,San Jose,CA,95127,399950,1,1.0,,777,785,1977,1,515,405,Active,September-30-2023 12:00 PM,September-30-2023 04:00 PM,https://www.redfin.com/CA/San-Jose/247-N-Capitol-Ave-95127/unit-185/home/1216708,"bridgeMLS, Bay East AOR, or Contra Costa AOR",41040440,N,Y,37.3674985,-121.8412123
MLS Listing,,Single Family Residential,1799 Foxworthy Ave,San Jose,CA,95124,1395000,3,2.0,SAN JOSE,1176,6271,1956,1,1186,,Active,September-30-2023 01:00 PM,September-30-2023 04:00 PM,https://www.redfin.com/CA/San-Jose/1799-Foxworthy-Ave-95124/home/974380,MLSListings,ML81943003,N,Y,37.2681831,-121.9167145
MLS Listing,,Condo/Co-op,144 S 3rd St #531,San Jose,CA,95112,798000,2,2.0,SAN JOSE,1421,1536,1997,1,562,794,Active,,,https://www.redfin.com/CA/San-Jose/144-S-3rd-St-95112/unit-531/home/875455,MLSListings,ML81942876,N,Y,37.3339721,-121.8857869
MLS Listing,,Single Family Residential,1814 Dalton Pl,San Jose,CA,95124,1699000,3,2.5,San Jose,1898,5218,1976,1,895,120,Active,September-30-2023 10:00 AM,September-30-2023 05:00 PM,https://www.redfin.com/CA/San-Jose/1814-Dalton-Pl-95124/home/1131846,MetroList,223093148,N,Y,37.2429192,-121.9116343
MLS Listing,,Single Family Residential,1901 James Pl,San Jose,CA,95125,1898000,3,2.0,SAN JOSE,2100,10073,1950,1,904,,Active,September-30-2023 01:00 PM,September-30-2023 04:00 PM,https://www.redfin.com/CA/San-Jose/1901-James-Pl-95125/home/852954,MLSListings,ML81942982,N,Y,37.287997,-121.9085084
MLS Listing,,Condo/Co-op,2100 La Terrace Cir,San Jose,CA,95123,523000,1,1.0,SAN JOSE,543,2096,1985,1,963,545,Active,September-30-2023 01:00 PM,September-30-2023 04:00 PM,https://www.redfin.com/CA/San-Jose/2100-La-Terrace-Cir-95123/home/961236,MLSListings,ML81943381,N,Y,37.240869,-121.86511
MLS Listing,,Mobile/Manufactured Home,245 El Bosque,San Jose,CA,95134,315000,4,2.0,699 - Not Defined,1344,1344,1993,1,234,,Active,,,https://www.redfin.com/CA/San-Jose/245-El-Bosque-Dr-95134/home/574776,CRMLS,CV23180170,N,Y,37.412088,-121.944578
MLS Listing,,Single Family Residential,5092 Pearl Ave,San Jose,CA,95136,1239999,4,2.5,SAN JOSE,1640,6562,1977,1,756,,Active,September-30-2023 01:00 PM,September-30-2023 04:00 PM,https://www.redfin.com/CA/San-Jose/5092-Pearl-Ave-95136/home/862413,MLSListings,ML81943375,N,Y,37.2598904,-121.8630435
MLS Listing,,Single Family Residential,3288 MOUNT RAINIER Dr,San Jose,CA,95127,1028000,3,2.0,SAN JOSE,1133,5504,1968,1,907,,Active,September-30-2023 01:00 PM,September-30-2023 04:00 PM,https://www.redfin.com/CA/San-Jose/3288-Mount-Rainier-Dr-95127/home/1497763,MLSListings,ML81943370,N,Y,37.3500562,-121.8054797
MLS Listing,,Single Family Residential,1940 Luby Dr,San Jose,CA,95133,1275000,4,2.5,SAN JOSE,1681,4803,1979,2,758,,Active,September-30-2023 01:00 PM,September-30-2023 04:00 PM,https://www.redfin.com/CA/San-Jose/1940-Luby-Dr-95133/home/1473893,MLSListings,ML81943216,N,Y,37.3644292,-121.8590408
MLS Listing,,Single Family Residential,1637 Jessica Way,San Jose,CA,95121,750000,3,1.5,SAN JOSE,1097,6004,1976,2,684,,Active,September-30-2023 01:00 PM,September-30-2023 04:00 PM,https://www.redfin.com/CA/San-Jose/1637-Jessica-Way-95121/home/1443334,MLSListings,ML81943360,N,Y,37.3134278,-121.8198067
MLS Listing,,Single Family Residential,3275 Percivale Dr,San Jose,CA,95127,999000,4,2.0,SAN JOSE,1242,5065,1959,2,804,,Active,September-30-2023 01:30 PM,September-30-2023 04:00 PM,https://www.redfin.com/CA/San-Jose/3275-Percivale-Dr-95127/home/1091711,MLSListings,ML81943359,N,Y,37.3840067,-121.8368454
MLS Listing,,Single Family Residential,3036 Silverland Dr,San Jose,CA,95135,2468000,4,3.0,SAN JOSE,2663,5903,1995,2,927,,Active,September-30-2023 01:30 PM,September-30-2023 04:00 PM,https://www.redfin.com/CA/San-Jose/3036-Silverland-Dr-95135/home/958039,MLSListings,ML81943355,N,Y,37.3126186,-121.7813599
MLS Listing,,Townhouse,101 Escobar Ct,Los Gatos,CA,95032,1428000,3,2.0,LOS GATOS,1494,1799,1972,2,956,404,Active,September-30-2023 01:00 PM,September-30-2023 04:00 PM,https://www.redfin.com/CA/Los-Gatos/101-Escobar-Ct-95032/home/1519527,MLSListings,ML81943354,N,Y,37.2429558,-121.9433667
MLS Listing,,Mobile/Manufactured Home,2151 Oakland Rd #28,San Jose,CA,95131,260000,3,2.0,SAN JOSE,1440,,1972,2,181,,Active,,,https://www.redfin.com/CA/San-Jose/2151-Old-Oakland-Rd-95131/unit-28/home/104436509,MLSListings,ML81943348,N,Y,37.3964341,-121.902613
MLS Listing,,Multi-Family (2-4 Unit),2102 Lynnhaven Dr,San Jose,CA,95128,1225000,4,2.0,SAN JOSE,1500,7223,1954,2,817,,Active,,,https://www.redfin.com/CA/San-Jose/2102-Lynnhaven-Dr-95128/home/1305834,MLSListings,ML81943347,N,Y,37.3082482,-121.9297782
MLS Listing,,Single Family Residential,629 Union Ave,Campbell,CA,95008,1249000,3,2.5,CAMPBELL,1318,2046,1980,2,948,210,Active,September-30-2023 01:00 PM,September-30-2023 04:00 PM,https://www.redfin.com/CA/Campbell/629-Union-Ave-95008/home/701539,MLSListings,ML81943339,N,Y,37.2780406,-121.9365028
MLS Listing,,Condo/Co-op,254 Agustin Narvaez St #3,San Jose,CA,95136,1398000,4,3.5,SAN JOSE,2002,,2020,2,698,336,Active,September-30-2023 01:00 PM,September-30-2023 04:00 PM,https://www.redfin.com/CA/San-Jose/254-Agustin-Narvaez-St-95136/unit-3/home/176539741,MLSListings,ML81943333,N,Y,37.285482,-121.8526584
MLS Listing,,Single Family Residential,5870 Meander Dr,San Jose,CA,95120,2200000,4,2.5,SAN JOSE,2008,9296,1975,2,1096,,Active,September-30-2023 01:00 PM,September-30-2023 04:00 PM,https://www.redfin.com/CA/San-Jose/5870-Meander-Dr-95120/home/1569857,MLSListings,ML81919300,N,Y,37.2342261,-121.8890094
MLS Listing,,Townhouse,51 Muirfield Ct,San Jose,CA,95116,595000,3,1.5,SAN JOSE,1198,642,1982,2,497,450,Active,September-30-2023 01:00 PM,September-30-2023 04:00 PM,https://www.redfin.com/CA/San-Jose/51-Muirfield-Ct-95116/home/889184,MLSListings,ML81943331,N,Y,37.359816,-121.838159
MLS Listing,,Single Family Residential,5978 Shawcroft Dr,San Jose,CA,95123,1299000,3,2.0,SAN JOSE,1223,6069,1971,2,1062,,Active,September-30-2023 01:00 PM,September-30-2023 04:00 PM,https://www.redfin.com/CA/San-Jose/5978-Shawcroft-Dr-95123/home/1332163,MLSListings,ML81943160,N,Y,37.2386896,-121.8273767
MLS Listing,,Single Family Residential,2920 Erica Ct,San Jose,CA,95121,1298000,4,2.0,SAN JOSE,1703,6000,1969,2,762,,Active,September-30-2023 11:00 AM,September-30-2023 05:00 PM,https://www.redfin.com/CA/San-Jose/2920-Erica-Ct-95121/home/1795838,MLSListings,ML81943319,N,Y,37.3051157,-121.8240778
MLS Listing,,Condo/Co-op,339 Tradewinds Dr,San Jose,CA,95123,649999,2,2.0,SAN JOSE,1122,,1985,2,579,446,Active,September-30-2023 01:00 PM,September-30-2023 04:00 PM,https://www.redfin.com/CA/San-Jose/339-Tradewinds-Dr-95123/home/908783,MLSListings,ML81943301,N,Y,37.2552262,-121.8298372
MLS Listing,,Single Family Residential,924 Ferngrove Dr,Cupertino,CA,95014,2998000,5,3.0,CUPERTINO,2064,6267,1960,2,1453,,Active,September-30-2023 01:30 PM,September-30-2023 04:30 PM,https://www.redfin.com/CA/Cupertino/924-Ferngrove-Dr-95014/home/1183839,MLSListings,ML81942779,N,Y,37.3122702,-122.0083319
MLS Listing,,Townhouse,1902 Nevets Ln,San Jose,CA,95133,1238000,3,3.5,SAN JOSE,1988,815,2018,2,623,249,Active,September-30-2023 01:30 PM,September-30-2023 04:30 PM,https://www.redfin.com/CA/San-Jose/1902-Nevets-Ln-95133/home/167218832,MLSListings,ML81943288,N,Y,37.36776,-121.865883
MLS Listing,,Single Family Residential,1631 University Way,San Jose,CA,95126,4995000,5,5.0,SAN JOSE,5959,20995,1951,2,838,,Active,,,https://www.redfin.com/CA/San-Jose/1631-University-Way-95126/home/187686810,MLSListings,ML81943284,N,Y,37.3337776,-121.930556
MLS Listing,,Single Family Residential,4750 Rahway Dr,San Jose,CA,95111,1098000,3,2.0,SAN JOSE,1512,8243,1975,2,726,,Active,September-30-2023 01:00 PM,September-30-2023 04:00 PM,https://www.redfin.com/CA/San-Jose/4750-Rahway-Dr-95111/home/1409302,MLSListings,ML81943266,N,Y,37.275399,-121.8092035
MLS Listing,,Townhouse,5866 Smoky Quartz Loop,San Jose,CA,95123,1149000,3,3.5,SAN JOSE,1712,1326,2015,2,671,396,Active,September-30-2023 12:00 PM,September-30-2023 03:00 PM,https://www.redfin.com/CA/San-Jose/5866-Smoky-Quartz-Loop-95123/home/95957995,MLSListings,ML81943280,N,Y,37.244648,-121.798924
MLS Listing,,Single Family Residential,1455 Hamilton Way,San Jose,CA,95125,1898000,3,2.0,SAN JOSE,1797,7175,1939,2,1056,,Active,September-30-2023 01:00 PM,September-30-2023 04:00 PM,https://www.redfin.com/CA/San-Jose/1455-Hamilton-Way-95125/home/1664391,MLSListings,ML81943279,N,Y,37.2953176,-121.907108
MLS Listing,,Townhouse,1313 Auzerais Ave,San Jose,CA,95126,998000,3,2.5,SAN JOSE,1512,797,2002,2,660,373,Active,September-30-2023 01:00 PM,September-30-2023 04:00 PM,https://www.redfin.com/CA/San-Jose/1313-Auzerais-Ave-95126/home/1045776,MLSListings,ML81942362,N,Y,37.3214,-121.911907
MLS Listing,,Condo/Co-op,1321 Fruitdale Ave,San Jose,CA,95126,924000,3,2.5,SAN JOSE,1291,,1980,2,716,437,Active,September-30-2023 01:00 PM,September-30-2023 04:00 PM,https://www.redfin.com/CA/San-Jose/1321-Fruitdale-Ave-95126/home/823410,MLSListings,ML81943270,N,Y,37.311386,-121.911775
MLS Listing,,Single Family Residential,186 Benbow Ave,San Jose,CA,95123,1299000,4,2.5,SAN JOSE,2186,5164,1966,2,594,,Active,September-30-2023 01:00 PM,September-30-2023 04:00 PM,https://www.redfin.com/CA/San-Jose/186-Benbow-Ave-95123/home/1782634,MLSListings,ML81943265,N,Y,37.2462612,-121.8090608
MLS Listing,,Single Family Residential,1731 Mossbrook Ave,San Jose,CA,95130,1948000,4,2.0,SAN JOSE,1671,6734,1963,2,1166,,Active,September-30-2023 01:30 PM,September-30-2023 04:30 PM,https://www.redfin.com/CA/San-Jose/1731-Mossbrook-Ave-95130/home/1752351,MLSListings,ML81943263,N,Y,37.2906057,-121.9833235
MLS Listing,,Condo/Co-op,81 Muller Pl,San Jose,CA,95126,1249000,3,3.5,SAN JOSE,1588,1912,2008,2,787,335,Active,September-30-2023 01:00 PM,September-30-2023 04:00 PM,https://www.redfin.com/CA/San-Jose/81-Muller-Pl-95126/home/23045984,MLSListings,ML81943262,N,Y,37.3247517,-121.9167545
MLS Listing,,Single Family Residential,1794 Seville Way,San Jose,CA,95131,1488000,3,2.0,SAN JOSE,1877,6766,1971,2,793,,Active,September-30-2023 01:30 PM,September-30-2023 04:30 PM,https://www.redfin.com/CA/San-Jose/1794-Seville-Way-95131/home/1295496,MLSListings,ML81941333,N,Y,37.3802743,-121.8747394
MLS Listing,,Townhouse,11428 Garden Terrace Dr,Cupertino,CA,95014,1888000,4,2.5,CUPERTINO,1852,1736,1981,2,1019,460,Active,September-30-2023 01:30 PM,September-30-2023 04:30 PM,https://www.redfin.com/CA/Cupertino/11428-Garden-Terrace-Dr-95014/home/1838358,MLSListings,ML81943256,N,Y,37.3021625,-122.0356332
MLS Listing,,Single Family Residential,3137 Jenkins Ave,San Jose,CA,95118,1745000,5,2.0,SAN JOSE,1787,6107,1971,2,976,,Active,September-30-2023 01:30 PM,September-30-2023 04:00 PM,https://www.redfin.com/CA/San-Jose/3137-Jenkins-Ave-95118/home/1077363,MLSListings,ML81943252,N,Y,37.2731192,-121.8888385
MLS Listing,,Single Family Residential,7175 Glenview Dr,San Jose,CA,95120,4699000,5,4.5,ALMADEN VALLEY,5558,33193,2003,2,845,130,Active,September-30-2023 01:00 PM,September-30-2023 04:00 PM,https://www.redfin.com/CA/San-Jose/7175-Glenview-Dr-95120/home/1363650,"bridgeMLS, Bay East AOR, or Contra Costa AOR",41039984,N,Y,37.2012364,-121.8571118
MLS Listing,,Townhouse,7220 Clarendon St,San Jose,CA,95129,1550000,3,2.5,SAN JOSE,1542,855,1979,2,1005,420,Active,September-30-2023 01:00 PM,September-30-2023 04:00 PM,https://www.redfin.com/CA/San-Jose/7220-Clarendon-St-95129/home/1581412,MLSListings,ML81943238,N,Y,37.3077276,-122.0309512
MLS Listing,,Multi-Family (2-4 Unit),2795 Garden Ave,San Jose,CA,95111,2188888,8,4.0,SAN JOSE,3680,8189,1986,2,595,,Active,,,https://www.redfin.com/CA/San-Jose/2795-Garden-Ave-95111/home/901947,MLSListings,ML81941980,N,Y,37.2961976,-121.8458309
MLS Listing,,Mobile/Manufactured Home,165 Blossom Hill Rd #22,San Jose,CA,95123,428888,3,2.0,SAN JOSE,1344,,1998,2,319,,Active,September-30-2023 02:30 PM,September-30-2023 05:00 PM,https://www.redfin.com/CA/San-Jose/165-Blossom-Hill-Rd-95123/unit-22/home/1115305,MLSListings,ML81943234,N,Y,37.2544204,-121.808343
MLS Listing,,Single Family Residential,3064 Lantz Ave,San Jose,CA,95124,1598000,3,2.0,SAN JOSE,1303,7169,1949,3,1226,,Active,September-30-2023 01:00 PM,September-30-2023 04:00 PM,https://www.redfin.com/CA/San-Jose/3064-Lantz-Ave-95124/home/1494760,MLSListings,ML81943223,N,Y,37.2666743,-121.9360006
MLS Listing,,Condo/Co-op,2226 Alexian Dr,San Jose,CA,95116,498000,2,2.0,SAN JOSE,976,,1985,3,510,475,Active,,,https://www.redfin.com/CA/San-Jose/2226-Alexian-Dr-95116/home/794760,MLSListings,ML81941825,N,Y,37.359975,-121.846833
MLS Listing,,Mobile/Manufactured Home,195 Blossom Hill Rd #210,San Jose,CA,95123,359950,3,2.0,SAN JOSE,1567,,2015,3,230,,Active,,,https://www.redfin.com/CA/San-Jose/195-Blossom-Hill-Rd-95123/unit-210/home/146054760,MLSListings,ML81942745,N,Y,37.2523032,-121.8123542
MLS Listing,,Single Family Residential,3611 Ethan Ct,San Jose,CA,95136,1460000,4,2.5,SAN JOSE,1954,5808,1974,3,747,,Active,,,https://www.redfin.com/CA/San-Jose/3611-Ethan-Ct-95136/home/1862325,MLSListings,ML81943213,N,Y,37.2718615,-121.8743463
MLS Listing,,Single Family Residential,1911 Dry Creek Rd,Campbell,CA,95008,2399000,4,2.5,CAMPBELL,2194,11717,1977,3,1093,,Active,September-30-2023 02:00 PM,September-30-2023 04:00 PM,https://www.redfin.com/CA/San-Jose/1911-Dry-Creek-Rd-95124/home/549896,MLSListings,ML81943212,N,Y,37.281244,-121.928977
MLS Listing,,Single Family Residential,1531 Johnson Ave,San Jose,CA,95129,2299888,3,2.0,SAN JOSE,1666,5954,1968,3,1380,,Active,September-30-2023 01:00 PM,September-30-2023 04:00 PM,https://www.redfin.com/CA/San-Jose/1531-Johnson-Ave-95129/home/772557,MLSListings,ML81943206,N,Y,37.2954876,-122.0078532
MLS Listing,,Townhouse,4639 Smoke River Ct,San Jose,CA,95136,899000,3,2.5,SAN JOSE,1441,1606,1977,3,624,512,Active,September-30-2023 01:00 PM,September-30-2023 04:00 PM,https://www.redfin.com/CA/San-Jose/4639-Smoke-River-Ct-95136/home/1581350,MLSListings,ML81943202,N,Y,37.2644943,-121.8626543
MLS Listing,,Single Family Residential,1597 Trona Way,San Jose,CA,95125,1998000,5,2.5,SAN JOSE,2211,6182,1963,3,904,,Active,September-30-2023 01:00 PM,September-30-2023 04:00 PM,https://www.redfin.com/CA/San-Jose/1597-Trona-Way-95125/home/1457775,MLSListings,ML81943196,N,Y,37.2763796,-121.9006617
MLS Listing,,Single Family Residential,6166 Iowa Dr,San Jose,CA,95123,1399000,4,2.0,SAN JOSE,1495,6382,1968,3,936,,Active,September-30-2023 05:00 PM,September-30-2023 07:30 PM,https://www.redfin.com/CA/San-Jose/6166-Iowa-Dr-95123/home/1588942,MLSListings,ML81943188,N,Y,37.2349523,-121.8335536
MLS Listing,,Townhouse,847 Berryessa Rd,San Jose,CA,95112,890000,4,4.0,SAN JOSE,1660,741,2009,3,536,272,Active,September-30-2023 01:30 PM,September-30-2023 05:00 PM,https://www.redfin.com/CA/San-Jose/847-Berryessa-Rd-95112/home/40175676,MLSListings,ML81943172,N,Y,37.362086,-121.888429
MLS Listing,,Single Family Residential,872 E Saint James St,San Jose,CA,95112,1249950,3,2.0,SAN JOSE,1713,4064,1930,3,730,,Active,September-30-2023 01:00 PM,September-30-2023 04:00 PM,https://www.redfin.com/CA/San-Jose/872-E-Saint-James-St-95112/home/1358261,MLSListings,ML81943164,N,Y,37.3472137,-121.8750952
MLS Listing,,Single Family Residential,1743 El Codo Way,San Jose,CA,95124,2500000,5,2.5,SAN JOSE,2423,7906,1963,3,1032,,Active,September-30-2023 01:00 PM,September-30-2023 04:00 PM,https://www.redfin.com/CA/San-Jose/1743-El-Codo-Way-95124/home/851768,MLSListings,ML81943152,N,Y,37.2731142,-121.9134873
MLS Listing,,Condo/Co-op,5379 Cribari Crst,San Jose,CA,95135,485880,2,2.0,,1240,,1969,3,392,966,Active,,,https://www.redfin.com/CA/San-Jose/5379-Cribari-Crst-95135/home/1640002,"bridgeMLS, Bay East AOR, or Contra Costa AOR",41038727,N,Y,37.295898,-121.755755
MLS Listing,,Single Family Residential,2217 S King Rd,San Jose,CA,95122,998000,4,2.0,SAN JOSE,1352,5562,1968,3,738,,Active,September-30-2023 01:00 PM,September-30-2023 04:00 PM,https://www.redfin.com/CA/San-Jose/2217-S-King-Rd-95122/home/1699473,MLSListings,ML81943143,N,Y,37.3253492,-121.8292384
MLS Listing,,Townhouse,1059 Villa Maria Ct,San Jose,CA,95125,998000,3,2.5,SAN JOSE,1585,1300,1982,3,630,600,Active,September-30-2023 01:00 PM,September-30-2023 04:00 PM,https://www.redfin.com/CA/San-Jose/1059-Villa-Maria-Ct-95125/home/844765,MLSListings,ML81942473,N,Y,37.313074,-121.890012
MLS Listing,,Condo/Co-op,357 Blossom Hill Rd #4,San Jose,CA,95123,534888,2,1.0,SAN JOSE,798,,1970,3,670,389,Active,September-30-2023 01:00 PM,September-30-2023 04:00 PM,https://www.redfin.com/CA/San-Jose/357-Blossom-Hill-Rd-95123/unit-4/home/993233,MLSListings,ML81942297,N,Y,37.2517563,-121.8258077
MLS Listing,,Single Family Residential,2479 Lost Oaks Dr,San Jose,CA,95124,1889888,3,2.0,SAN JOSE,1308,8055,1959,3,1445,,Active,September-30-2023 01:00 PM,September-30-2023 04:00 PM,https://www.redfin.com/CA/San-Jose/2479-Lost-Oaks-Dr-95124/home/1478429,MLSListings,ML81943096,N,Y,37.2503907,-121.9488886
MLS Listing,,Single Family Residential,4147 Hamilton Park Dr,San Jose,CA,95130,1349000,3,2.0,SAN JOSE,1346,6599,1967,3,1002,,Active,September-30-2023 01:00 PM,September-30-2023 04:00 PM,https://www.redfin.com/CA/San-Jose/4147-Hamilton-Park-Dr-95130/home/1121350,MLSListings,ML81940146,N,Y,37.2959293,-121.9754377
MLS Listing,,Single Family Residential,10080 Judy Ave,Cupertino,CA,95014,4850000,5,4.5,CUPERTINO,3779,9375,2023,3,1283,,Active,,,https://www.redfin.com/CA/Cupertino/10080-Judy-Ave-95014/home/794599,MLSListings,ML81943132,N,Y,37.3217344,-122.0052228
MLS Listing,,Single Family Residential,825 N 17th St,San Jose,CA,95112,720000,2,1.0,SAN JOSE,780,6029,1953,3,923,,Active,September-30-2023 01:00 PM,September-30-2023 04:00 PM,https://www.redfin.com/CA/San-Jose/825-N-17th-St-95112/home/1211894,MLSListings,ML81943125,N,Y,37.3593484,-121.8862563
MLS Listing,,Single Family Residential,1648 Tierra Buena Dr,San Jose,CA,95121,950000,3,2.5,SAN JOSE,1204,5175,1963,3,789,,Active,October-1-2023 01:00 PM,October-1-2023 04:00 PM,https://www.redfin.com/CA/San-Jose/1648-Tierra-Buena-Dr-95121/home/1471738,MLSListings,ML81943123,N,Y,37.3158953,-121.8221202
MLS Listing,,Single Family Residential,3071 Wall St,San Jose,CA,95111,900000,3,2.0,San Jose,1296,8024,1940,3,694,,Active,,,https://www.redfin.com/CA/San-Jose/3071-Wall-St-95111/home/1359415,MetroList,223093710,N,Y,37.2905384,-121.8417386
MLS Listing,,Single Family Residential,14004 Clayton Rd,San Jose,CA,95127,1098000,3,2.0,SAN JOSE,1520,49711,1948,4,722,,Active,September-30-2023 01:00 PM,September-30-2023 04:00 PM,https://www.redfin.com/CA/San-Jose/14004-Clayton-Rd-95127/home/776153,MLSListings,ML81941611,N,Y,37.3653961,-121.7736601
MLS Listing,,Single Family Residential,918 Foothill Dr,San Jose,CA,95123,1895000,4,2.5,SAN JOSE,2124,11930,1968,4,892,,Active,September-30-2023 02:00 PM,September-30-2023 04:00 PM,https://www.redfin.com/CA/San-Jose/918-Foothill-Dr-95123/home/1620071,MLSListings,ML81942658,N,Y,37.2380225,-121.8580178
MLS Listing,,Single Family Residential,88 Donna Adelle Ct,San Jose,CA,95127,1599900,4,2.5,SAN JOSE,2234,7492,2005,4,716,,Active,September-30-2023 01:00 PM,September-30-2023 04:00 PM,https://www.redfin.com/CA/San-Jose/88-Donna-Adelle-Ct-95127/home/2124845,MLSListings,ML81943112,N,Y,37.3745272,-121.8212527
MLS Listing,,Condo/Co-op,7720 Kilmarnok Dr,San Jose,CA,95135,825000,2,2.0,SAN JOSE,1490,,1989,4,554,1238,Active,,,https://www.redfin.com/CA/San-Jose/7720-Kilmarnok-Dr-95135/home/1460499,MLSListings,ML81943110,N,Y,37.2892262,-121.7387537
MLS Listing,,Condo/Co-op,5711 Makati Cir Unit G,San Jose,CA,95123,480000,1,1.0,SAN JOSE,543,,1982,4,884,557,Active,September-30-2023 01:00 PM,September-30-2023 03:00 PM,https://www.redfin.com/CA/San-Jose/5711-Makati-Cir-95123/unit-G/home/996189,MLSListings,ML81942316,N,Y,37.24877,-121.804523
MLS Listing,,Single Family Residential,1261 Kaylene Ct,San Jose,CA,95127,1698800,4,2.5,SAN JOSE,2585,16871,1987,4,657,,Active,,,https://www.redfin.com/CA/San-Jose/1261-Kaylene-Ct-95127/home/95957872,MLSListings,ML81941325,N,Y,37.3600127,-121.8058802
MLS Listing,,Mobile/Manufactured Home,1391 Sunbeam Cir #1391,San Jose,CA,95122,385000,3,2.0,SAN JOSE,1248,,1980,4,308,,Active,,,https://www.redfin.com/CA/San-Jose/1391-Sunbeam-Cir-95122/unit-1391/home/187661913,MLSListings,ML81943095,N,Y,37.3339559,-121.8504688
MLS Listing,,Townhouse,85 Montecito Vista Dr #5,San Jose,CA,95111,1098000,3,3.5,SAN JOSE,1953,795,2018,4,562,289,Active,September-30-2023 01:00 PM,September-30-2023 03:00 PM,https://www.redfin.com/CA/San-Jose/85-Montecito-Vista-Dr-95111/unit-5/home/167458093,MLSListings,ML81943091,N,Y,37.2910692,-121.8533731
MLS Listing,,Single Family Residential,3283 Lindenoaks Dr,San Jose,CA,95117,1800000,4,2.0,SAN JOSE,1400,6881,1956,4,1286,,Active,September-30-2023 01:30 PM,September-30-2023 04:30 PM,https://www.redfin.com/CA/San-Jose/3283-Lindenoaks-Dr-95117/home/745427,MLSListings,ML81943088,N,Y,37.3119143,-121.9555321
MLS Listing,,Condo/Co-op,423 N 2nd St #136,San Jose,CA,95112,578000,1,1.0,SAN JOSE,730,,1994,4,792,513,Active,September-30-2023 01:30 PM,September-30-2023 04:00 PM,https://www.redfin.com/CA/San-Jose/423-N-2nd-St-95112/unit-136/home/937150,MLSListings,ML81943078,N,Y,37.342744,-121.894925
MLS Listing,,Vacant Land,51000 Mines Rd,San Jose,CA,95140,1275000,,,San Jose,3484800,3484800,,4,0,,Active,,,https://www.redfin.com/CA/San-Jose/51000-Mines-RD-95140/home/187660693,"bridgeMLS, Bay East AOR, or Contra Costa AOR",41040148,N,Y,37.3712,-121.7156
MLS Listing,,Condo/Co-op,46 W Julian St #431,San Jose,CA,95110,899000,2,2.0,SAN JOSE,1596,,2004,4,563,730,Active,September-30-2023 01:30 PM,September-30-2023 04:00 PM,https://www.redfin.com/CA/San-Jose/46-W-Julian-St-95110/unit-431/home/766769,MLSListings,ML81943073,N,Y,37.3400506,-121.8944256
MLS Listing,,Condo/Co-op,3338 Kimber Ct #7,San Jose,CA,95124,639000,2,1.0,SAN JOSE,886,,1977,4,721,365,Active,September-30-2023 01:00 PM,September-30-2023 03:00 PM,https://www.redfin.com/CA/San-Jose/3338-Kimber-Ct-95124/unit-7/home/1156821,MLSListings,ML81943071,N,Y,37.2642549,-121.9220504
MLS Listing,,Condo/Co-op,7622 Stoneshire Ct,San Jose,CA,95135,950000,2,2.0,SAN JOSE,1509,,1988,4,630,1101,Active,,,https://www.redfin.com/CA/San-Jose/7622-Stoneshire-Ct-95135/home/718833,MLSListings,ML81942317,N,Y,37.2886958,-121.7407029
MLS Listing,,Single Family Residential,529 Columbia Ave,San Jose,CA,95126,999800,4,1.0,SAN JOSE,1716,5000,1910,4,583,,Active,September-30-2023 01:00 PM,September-30-2023 04:00 PM,https://www.redfin.com/CA/San-Jose/529-Columbia-Ave-95126/home/1449467,MLSListings,ML81942426,N,Y,37.3249456,-121.8987056
MLS Listing,,Condo/Co-op,5935 Flash Ct,San Jose,CA,95119,975900,2,2.0,SAN JOSE,1404,,2023,4,695,440,Active,September-30-2023 01:00 PM,September-30-2023 04:00 PM,https://www.redfin.com/CA/San-Jose/5935-Flash-Ct-95119/home/186185867,MLSListings,ML81943058,N,Y,37.2411886,-121.7871489
MLS Listing,,Condo/Co-op,6617 Optimun Loop,San Jose,CA,95119,1332471,4,3.5,SAN JOSE,2029,,2023,4,657,440,Active,September-30-2023 01:00 PM,September-30-2023 04:00 PM,https://www.redfin.com/CA/San-Jose/6617-Optimum-Loop-95119/home/186468621,MLSListings,ML81943049,N,Y,37.241742,-121.786397
MLS Listing,,Single Family Residential,3041 Harvestwood Ct,San Jose,CA,95148,1750000,5,3.0,SAN JOSE,2253,6355,1976,4,777,,Active,September-30-2023 12:00 PM,September-30-2023 04:00 PM,https://www.redfin.com/CA/San-Jose/3041-Harvestwood-Ct-95148/home/1688422,MLSListings,ML81936589,N,Y,37.3274674,-121.7857437
MLS Listing,,Single Family Residential,1563 Williamsport Dr,San Jose,CA,95131,1668000,4,3.0,SAN JOSE,1822,4255,1988,4,915,,Active,September-30-2023 11:00 AM,September-30-2023 04:00 PM,https://www.redfin.com/CA/San-Jose/1563-Williamsport-Dr-95131/home/1514102,MLSListings,ML81943040,N,Y,37.3852746,-121.8819876
MLS Listing,,Townhouse,461 Northlake Dr #25,San Jose,CA,95117,998000,3,2.5,SAN JOSE,1626,877,1985,4,614,497,Active,September-30-2023 01:30 PM,September-30-2023 04:30 PM,https://www.redfin.com/CA/San-Jose/461-Northlake-Dr-95117/unit-25/home/1829804,MLSListings,ML81942452,N,Y,37.3195711,-121.9700133
MLS Listing,,Single Family Residential,4915 Bel Escou Dr,San Jose,CA,95124,1799000,3,2.0,SAN JOSE,1180,8041,1953,4,1525,,Active,September-30-2023 01:00 PM,September-30-2023 04:00 PM,https://www.redfin.com/CA/San-Jose/4915-Bel-Escou-Dr-95124/home/836210,MLSListings,ML81943027,N,Y,37.2479302,-121.9328017
MLS Listing,,Single Family Residential,967 Wallace Dr,San Jose,CA,95120,1949000,4,2.0,SAN JOSE,1859,6233,1965,4,1048,,Active,September-30-2023 01:00 PM,September-30-2023 04:00 PM,https://www.redfin.com/CA/San-Jose/967-Wallace-Dr-95120/home/1170911,MLSListings,ML81942603,N,Y,37.2257284,-121.8588697
MLS Listing,,Single Family Residential,1425 Taper Ct,San Jose,CA,95122,988888,4,2.0,SAN JOSE,1329,2600,1974,5,744,,Active,September-30-2023 02:00 PM,September-30-2023 05:00 PM,https://www.redfin.com/CA/San-Jose/1425-Taper-Ct-95122/home/1219037,MLSListings,ML81942370,N,Y,37.3234631,-121.8374237
MLS Listing,,Condo/Co-op,5258 Cribari Hts,San Jose,CA,95135,499000,2,1.0,SAN JOSE,947,,1969,5,527,830,Active,,,https://www.redfin.com/CA/San-Jose/5258-Cribari-Hts-95135/home/1666819,MLSListings,ML81943016,N,Y,37.297517,-121.754989
MLS Listing,,Condo/Co-op,8613 Vineyard Ridge Pl,San Jose,CA,95135,899000,3,2.0,SAN JOSE,1582,,1994,5,568,1237,Active,,,https://www.redfin.com/CA/San-Jose/8613-Vineyard-Ridge-Pl-95135/home/1132139,MLSListings,ML81943015,N,Y,37.2874011,-121.7429077
MLS Listing,,Single Family Residential,21951 Shillingsburg Ave,San Jose,CA,95120,1850000,2,1.0,SAN JOSE,1600,232616,1976,5,1156,,Active,,,https://www.redfin.com/CA/San-Jose/21951-Shillingsburg-Ave-95120/home/1546665,MLSListings,ML81921133,N,Y,37.1984799,-121.7950225
MLS Listing,,Single Family Residential,328 El Portal Way,San Jose,CA,95119,1550000,4,2.0,ALMADEN,2212,8190,1968,5,701,40,Active,September-30-2023 12:00 PM,September-30-2023 03:00 PM,https://www.redfin.com/CA/San-Jose/328-El-Portal-Way-95119/home/1005384,"bridgeMLS, Bay East AOR, or Contra Costa AOR",41040090,N,Y,37.2334421,-121.8035567
MLS Listing,,Condo/Co-op,1055 N Capitol Ave #52,San Jose,CA,95133,636000,2,2.0,SAN JOSE,832,,1981,6,764,534,Active,September-30-2023 02:00 PM,September-30-2023 04:00 PM,https://www.redfin.com/CA/San-Jose/1055-N-Capitol-Ave-95133/unit-52/home/1603274,MLSListings,ML81942659,N,Y,37.3835775,-121.8592127
MLS Listing,,Single Family Residential,1812 Dry Creek Rd,San Jose,CA,95124,3100000,4,2.5,SAN JOSE,2754,18295,1977,6,1126,,Active,,,https://www.redfin.com/CA/San-Jose/1812-Dry-Creek-Rd-95124/home/849074,MLSListings,ML81941998,N,Y,37.2840934,-121.9205107
MLS Listing,,Single Family Residential,3778 Chilton Ct,San Jose,CA,95111,1440000,4,2.5,SJOS - San Jose,2291,5512,1998,6,629,,Active,September-30-2023 01:00 PM,September-30-2023 04:00 PM,https://www.redfin.com/CA/San-Jose/3778-Chilton-Ct-95111/home/958351,CRMLS,PW23178195,N,Y,37.2874402,-121.8265691
MLS Listing,,Townhouse,17 Deer Run Cir,San Jose,CA,95136,880888,2,2.5,SAN JOSE,1196,1513,1988,6,737,355,Active,September-30-2023 01:30 PM,September-30-2023 04:30 PM,https://www.redfin.com/CA/San-Jose/17-Deer-Run-Cir-95136/home/985920,MLSListings,ML81942969,N,Y,37.2670227,-121.8243923
MLS Listing,,Single Family Residential,1313 Michigan Ave,Alviso,CA,95002,1250000,5,3.0,Alviso,1630,6107,1940,7,767,,Active,,,https://www.redfin.com/CA/Alviso/1313-Michigan-Ave-95002/home/1783547,MetroList,223092830,N,Y,37.4273432,-121.9710615
MLS Listing,,Condo/Co-op,88 E San Fernando St #1702,San Jose,CA,95113,999000,2,2.0,SAN JOSE,1224,,2008,7,816,1009,Active,,,https://www.redfin.com/CA/San-Jose/88-E-San-Fernando-St-95113/unit-1702/home/23048653,MLSListings,ML81936775,N,Y,37.3350563,-121.8872863
MLS Listing,,Single Family Residential,182 S Morrison Ave,San Jose,CA,95126,1649999,4,2.5,SAN JOSE,2085,6283,1942,7,791,,Active,September-30-2023 01:00 PM,September-30-2023 04:00 PM,https://www.redfin.com/CA/San-Jose/182-S-Morrison-Ave-95126/home/709135,MLSListings,ML81942939,N,Y,37.3268902,-121.9081305
MLS Listing,,Multi-Family (2-4 Unit),816 Opal Dr,San Jose,CA,95117,1780000,7,4.0,SAN JOSE,2686,7359,1960,7,663,,Active,,,https://www.redfin.com/CA/San-Jose/816-Opal-Dr-95117/home/1534336,MLSListings,ML81942936,N,Y,37.3129019,-121.9523104
MLS Listing,,Single Family Residential,4033 Valerie Dr,Campbell,CA,95008,1838888,4,2.0,CAMPBELL,1782,5931,1971,7,1032,,Active,September-30-2023 01:00 PM,September-30-2023 04:00 PM,https://www.redfin.com/CA/Campbell/4033-Valerie-Dr-95008/home/1231277,MLSListings,ML81942930,N,Y,37.279872,-121.9725967
MLS Listing,,Single Family Residential,815 Upton Way,San Jose,CA,95136,1400000,4,2.5,SAN JOSE,2000,6117,1968,7,700,,Active,September-30-2023 01:00 PM,September-30-2023 04:00 PM,https://www.redfin.com/CA/San-Jose/815-Upton-Way-95136/home/863539,MLSListings,ML81942929,N,Y,37.2699218,-121.8659011
MLS Listing,,Condo/Co-op,25 S 3rd St #411,San Jose,CA,95113,585000,1,1.0,SAN JOSE,692,,2007,7,845,491,Active,,,https://www.redfin.com/CA/San-Jose/25-S-3rd-St-95113/unit-411/home/17288876,MLSListings,ML81942926,N,Y,37.3364883,-121.8882349
MLS Listing,,Townhouse,700 Adeline Ave,San Jose,CA,95136,1388000,4,3.5,SAN JOSE,2209,871,2005,7,628,310,Active,September-30-2023 01:00 PM,September-30-2023 04:00 PM,https://www.redfin.com/CA/San-Jose/700-Adeline-Ave-95136/home/2124334,MLSListings,ML81942921,N,Y,37.2864793,-121.8617805
MLS Listing,,Condo/Co-op,2421 Julibee Ln,San Jose,CA,95131,519000,1,1.0,BERRYESSA,645,1771,1990,7,805,352,Active,September-30-2023 02:00 PM,September-30-2023 04:00 PM,https://www.redfin.com/CA/San-Jose/2421-Jubilee-Ln-95131/home/1501481,"bridgeMLS, Bay East AOR, or Contra Costa AOR",41039604,N,Y,37.4017517,-121.8855678
MLS Listing,,Condo/Co-op,5486 Spinnaker Walkway #2,San Jose,CA,95123,534000,2,1.0,SAN JOSE,903,3036,1969,7,591,420,Active,September-30-2023 02:00 PM,September-30-2023 04:00 PM,https://www.redfin.com/CA/San-Jose/5486-Spinnaker-Ww-95123/unit-2/home/1313468,MLSListings,ML81937046,N,Y,37.2542323,-121.822633
MLS Listing,,Single Family Residential,3205 Napa Ct,San Jose,CA,95148,1350000,4,2.0,SAN JOSE,1200,8621,1971,7,1125,,Active,September-30-2023 02:00 PM,September-30-2023 04:00 PM,https://www.redfin.com/CA/San-Jose/3205-Napa-Ct-95148/home/1824509,MLSListings,ML81942896,N,Y,37.3350056,-121.7958235
MLS Listing,,Condo/Co-op,129 Silcreek Dr,San Jose,CA,95116,749000,2,2.0,SAN JOSE,1313,,1984,7,570,735,Active,September-30-2023 01:30 PM,September-30-2023 04:30 PM,https://www.redfin.com/CA/San-Jose/129-Silcreek-Dr-95116/home/975148,MLSListings,ML81941348,N,Y,37.356462,-121.853276
MLS Listing,,Single Family Residential,2723 Westgate,San Jose,CA,95125,2188000,4,3.0,SAN JOSE,1755,6988,1955,7,1247,,Active,September-30-2023 02:00 PM,September-30-2023 04:30 PM,https://www.redfin.com/CA/San-Jose/2723-Westgate-Ave-95125/home/1334522,MLSListings,ML81942834,N,Y,37.2790377,-121.890169
MLS Listing,,Single Family Residential,836 Las Palmas Way,San Jose,CA,95133,1198000,3,2.5,SAN JOSE,1566,3486,1997,8,765,100,Active,September-30-2023 02:00 PM,September-30-2023 05:00 PM,https://www.redfin.com/CA/San-Jose/836-Las-Palmas-Way-95133/home/770473,MLSListings,ML81942823,N,Y,37.377616,-121.8550379
MLS Listing,,Single Family Residential,1235 Paula Dr,Campbell,CA,95008,1949000,4,2.5,CAMPBELL,1784,6127,1960,8,1092,,Active,September-30-2023 01:00 PM,September-30-2023 04:00 PM,https://www.redfin.com/CA/Campbell/1235-Paula-Dr-95008/home/1754368,MLSListings,ML81941358,N,Y,37.2898345,-121.9717723
MLS Listing,,Single Family Residential,635 E Mission St,San Jose,CA,95112,1299000,4,2.5,SAN JOSE,1332,6182,1910,8,975,,Active,September-30-2023 01:00 PM,September-30-2023 04:00 PM,https://www.redfin.com/CA/San-Jose/635-E-Mission-St-95112/home/697460,MLSListings,ML81942800,N,Y,37.3575952,-121.8889685
MLS Listing,,Multi-Family (5+ Unit),110 Graham Ave,San Jose,CA,95110,4600000,22,16.0,SAN JOSE,10300,14000,1950,8,447,,Active,,,https://www.redfin.com/CA/San-Jose/110-Graham-Ave-95110/home/1606681,MLSListings,ML81942797,N,Y,37.3188465,-121.8798755
MLS Listing,,Multi-Family (2-4 Unit),1232 Normandy Way,Santa Clara,CA,95050,1498000,4,2.0,SANTA CLARA,1857,6964,1959,8,807,,Active,,,https://www.redfin.com/CA/Santa-Clara/1232-Normandy-Way-95050/home/1011482,MLSListings,ML81942776,N,Y,37.3382215,-121.9420226
MLS Listing,,Condo/Co-op,766 Warring Dr #4,San Jose,CA,95123,520000,2,1.0,SAN JOSE,798,,1970,8,652,460,Active,September-30-2023 01:00 PM,September-30-2023 04:00 PM,https://www.redfin.com/CA/San-Jose/766-Warring-Dr-95123/unit-4/home/1608548,MLSListings,ML81942749,N,Y,37.2481508,-121.85265
MLS Listing,,Condo/Co-op,88 E San Fernando St #2002,San Jose,CA,95113,1049000,2,2.0,SAN JOSE,1224,,2008,8,857,1009,Active,,,https://www.redfin.com/CA/San-Jose/88-E-San-Fernando-St-95113/unit-2002/home/23048670,MLSListings,ML81940317,N,Y,37.3350563,-121.8872863
MLS Listing,,Single Family Residential,1719 Harmil Way,San Jose,CA,95125,1899000,4,2.5,SAN JOSE,2266,5756,1938,8,838,,Active,September-30-2023 01:00 PM,September-30-2023 04:00 PM,https://www.redfin.com/CA/San-Jose/1719-Harmil-Way-95125/home/1085374,MLSListings,ML81942735,N,Y,37.2993807,-121.8900245
MLS Listing,,Single Family Residential,105 S 15th St,San Jose,CA,95112,1675000,3,2.0,SAN JOSE,2005,6863,1922,8,835,,Active,September-30-2023 01:30 PM,September-30-2023 04:30 PM,https://www.redfin.com/CA/San-Jose/105-S-15th-St-95112/home/1702913,MLSListings,ML81942728,N,Y,37.3409139,-121.874984
MLS Listing,,Single Family Residential,,San Jose,CA,95127,1099800,3,2.5,SAN JOSE,1841,2613,1999,8,597,156,Active,,,https://www.redfin.com/CA/San-Jose/Undisclosed-address-95127/home/887608,MLSListings,ML81942723,N,Y,37.363103,-121.8260798
MLS Listing,,Condo/Co-op,2859 S Bascom Ave #305,Campbell,CA,95008,695000,2,2.0,CAMPBELL,841,,1984,8,826,480,Active,September-30-2023 02:00 PM,September-30-2023 04:00 PM,https://www.redfin.com/CA/Campbell/2859-S-Bascom-Ave-95008/unit-305/home/827203,MLSListings,ML81942719,N,Y,37.270718,-121.9379914
MLS Listing,,Single Family Residential,3362 Mount Logan Dr,San Jose,CA,95127,908888,3,2.0,SAN JOSE,1198,5388,1960,8,759,,Active,,,https://www.redfin.com/CA/San-Jose/3362-Mount-Logan-Dr-95127/home/1455496,MLSListings,ML81942717,N,Y,37.3541539,-121.8062362
MLS Listing,,Single Family Residential,4262 Meg Dr,San Jose,CA,95136,1375000,3,2.0,SAN JOSE,1424,9596,1969,8,966,,Active,September-30-2023 01:30 PM,September-30-2023 04:30 PM,https://www.redfin.com/CA/San-Jose/4262-Meg-Dr-95136/home/735571,MLSListings,ML81942712,N,Y,37.2712146,-121.8544997
MLS Listing,,Condo/Co-op,4681 Albany Cir #132,San Jose,CA,95129,588000,1,1.0,SAN JOSE,813,,1982,8,723,558,Active,September-30-2023 02:00 PM,September-30-2023 04:00 PM,https://www.redfin.com/CA/San-Jose/4681-Albany-Cir-95129/unit-132/home/1464930,MLSListings,ML81942709,N,Y,37.3216877,-121.9856113
MLS Listing,,Townhouse,402 Ellicott Loop,San Jose,CA,95123,987880,3,3.5,SAN JOSE,1644,701,2017,8,601,242,Active,September-30-2023 01:00 PM,September-30-2023 04:00 PM,https://www.redfin.com/CA/San-Jose/402-Ellicott-Loop-95123/home/143042346,MLSListings,ML81942347,N,Y,37.2501138,-121.7965564
MLS Listing,,Single Family Residential,1377 CRISTAL Ct,San Jose,CA,95127,1968888,4,3.0,SAN JOSE,3188,8694,2006,8,618,,Active,September-30-2023 01:30 PM,September-30-2023 04:30 PM,https://www.redfin.com/CA/San-Jose/1377-Cristal-Ct-95127/home/21496400,MLSListings,ML81936221,N,Y,37.3624481,-121.797737
MLS Listing,,Single Family Residential,671 S 14th St,San Jose,CA,95112,1515000,3,2.0,SAN JOSE,1947,5928,1940,8,778,,Active,September-30-2023 01:00 PM,September-30-2023 04:00 PM,https://www.redfin.com/CA/San-Jose/671-S-14th-St-95112/home/832170,MLSListings,ML81936471,N,Y,37.332173,-121.8698477
MLS Listing,,Single Family Residential,543 Wagman Dr,San Jose,CA,95129,2388000,4,2.0,SAN JOSE,1655,6514,1965,9,1443,,Active,September-30-2023 01:30 PM,September-30-2023 04:30 PM,https://www.redfin.com/CA/San-Jose/543-Wagman-Dr-95129/home/1504479,MLSListings,ML81942644,N,Y,37.3169358,-121.9937184
MLS Listing,,Single Family Residential,202 Purple Glen Dr,San Jose,CA,95119,1995000,5,3.0,SAN JOSE,2563,10635,1972,9,778,40,Active,September-30-2023 01:00 PM,September-30-2023 04:00 PM,https://www.redfin.com/CA/San-Jose/202-Purple-Glen-Dr-95119/home/1007236,MLSListings,ML81942635,N,Y,37.2318161,-121.789719
MLS Listing,,Condo/Co-op,1690 Cedarcreek Dr,San Jose,CA,95121,849900,3,2.5,SAN JOSE,1360,1400,1979,9,625,335,Active,September-30-2023 12:00 PM,September-30-2023 03:00 PM,https://www.redfin.com/CA/San-Jose/1690-Cedarcreek-Dr-95121/home/789729,MLSListings,ML81942632,N,Y,37.304293,-121.8088725
MLS Listing,,Condo/Co-op,2984 Jayhawkers Pl #4,San Jose,CA,95136,1199950,3,2.0,SAN JOSE,1256,,2020,9,955,631,Active,September-30-2023 01:00 PM,September-30-2023 04:00 PM,https://www.redfin.com/CA/San-Jose/2984-Jayhawkers-Pl-95136/unit-4/home/172950152,MLSListings,ML81942620,N,Y,37.2851058,-121.8526584
MLS Listing,,Condo/Co-op,3505 La Terrace Cir,San Jose,CA,95123,535000,1,1.0,SAN JOSE,650,2969,1985,9,823,545,Active,,,https://www.redfin.com/CA/San-Jose/3505-La-Terrace-Cir-95123/home/1001500,MLSListings,ML81942617,N,Y,37.24129,-121.867961
MLS Listing,,Single Family Residential,3900 Middletown Ct,Campbell,CA,95008,1499000,3,2.0,CAMPBELL,1261,7465,1962,9,1189,,Active,September-30-2023 01:00 PM,September-30-2023 04:00 PM,https://www.redfin.com/CA/San-Jose/3900-Middletown-Ct-95130/home/1701483,MLSListings,ML81942608,N,Y,37.277631,-121.969524
MLS Listing,,Condo/Co-op,3593 S Bascom Ave #20,Campbell,CA,95008,575000,1,1.0,CAMPBELL,742,,1984,9,775,399,Active,September-30-2023 02:00 PM,September-30-2023 04:00 PM,https://www.redfin.com/CA/Campbell/3593-S-Bascom-Ave-95008/unit-20/home/1791448,MLSListings,ML81942606,N,Y,37.2616318,-121.9464854
MLS Listing,,Single Family Residential,1446 Sharp Ave,Campbell,CA,95008,1745000,4,2.5,CAMPBELL,1710,9659,1955,9,1020,,Active,September-30-2023 01:00 PM,September-30-2023 04:00 PM,https://www.redfin.com/CA/Campbell/1446-Sharp-Ave-95008/home/1754174,MLSListings,ML81942341,N,Y,37.2663706,-121.9424746
MLS Listing,,Condo/Co-op,800 N 8th St #120,San Jose,CA,95112,829000,2,2.0,SAN JOSE,1214,,2004,9,683,670,Active,September-30-2023 01:00 PM,September-30-2023 04:00 PM,https://www.redfin.com/CA/San-Jose/800-N-8th-St-95112/unit-120/home/1303701,MLSListings,ML81942185,N,Y,37.3554157,-121.8944152
MLS Listing,,Townhouse,46 Raindance Ct,San Jose,CA,95136,950000,3,2.5,SAN JOSE,1452,1134,1988,9,654,355,Active,September-30-2023 01:00 PM,September-30-2023 04:00 PM,https://www.redfin.com/CA/San-Jose/46-Raindance-Ct-95136/home/951110,MLSListings,ML81942578,N,Y,37.2680188,-121.8237711
MLS Listing,,Single Family Residential,1145 Miller Ave,San Jose,CA,95129,2798000,5,3.5,SAN JOSE,2261,6746,1959,9,1238,,Active,September-30-2023 02:00 PM,September-30-2023 04:00 PM,https://www.redfin.com/CA/San-Jose/1145-Miller-Ave-95129/home/795186,MLSListings,ML81941872,N,Y,37.3045684,-122.0154381
MLS Listing,,Single Family Residential,15390 Charmeran Ave,San Jose,CA,95124,3195000,4,3.5,SAN JOSE,2616,8006,2023,9,1221,,Active,,,https://www.redfin.com/CA/San-Jose/15390-Charmeran-Ave-95124/home/1327232,MLSListings,ML81942313,N,Y,37.2563406,-121.9384912
MLS Listing,,Single Family Residential,3168 Matzley Ct,San Jose,CA,95124,1600000,3,2.0,SAN JOSE,1248,10937,1960,9,1282,,Active,September-30-2023 12:00 PM,September-30-2023 04:00 PM,https://www.redfin.com/CA/San-Jose/3168-Matzley-Ct-95124/home/553574,MLSListings,ML81942560,N,Y,37.2653952,-121.9168284
MLS Listing,,Single Family Residential,870 Cinnabar St,San Jose,CA,95126,799000,2,1.0,SAN JOSE,720,3997,1900,9,1110,,Active,,,https://www.redfin.com/CA/San-Jose/870-Cinnabar-St-95126/home/1738129,MLSListings,ML81942542,N,Y,37.3346354,-121.9086529
MLS Listing,,Single Family Residential,5561 Southcrest Way,San Jose,CA,95123,1488888,3,2.5,San Jose,1682,3034,2012,9,885,155,Active,September-30-2023 01:00 PM,September-30-2023 03:00 PM,https://www.redfin.com/CA/San-Jose/5561-Southcrest-Way-95123/home/52672530,San Francisco MLS,423907017,N,Y,37.2517067,-121.8453827
MLS Listing,,Townhouse,1886 Trento Loop,Milpitas,CA,95035,1218000,3,3.0,MILPITAS,1709,521,2016,9,713,370,Active,September-30-2023 01:30 PM,September-30-2023 04:30 PM,https://www.redfin.com/CA/Milpitas/1886-Trento-Loop-95035/home/109778019,MLSListings,ML81937181,N,Y,37.4047705,-121.8933868
MLS Listing,,Single Family Residential,6104 Maree Ct,San Jose,CA,95123,1255000,4,2.0,SAN JOSE,1400,7530,1970,10,896,,Active,September-30-2023 01:00 PM,September-30-2023 04:30 PM,https://www.redfin.com/CA/San-Jose/6104-Maree-Ct-95123/home/1536820,MLSListings,ML81941497,N,Y,37.2364932,-121.8403596
MLS Listing,,Condo/Co-op,2197 Summerton Dr,San Jose,CA,95122,599000,2,2.5,SAN JOSE,1052,,1985,10,569,635,Active,October-1-2023 02:00 PM,October-1-2023 04:00 PM,https://www.redfin.com/CA/San-Jose/2197-Summerton-Dr-95122/home/878696,MLSListings,ML81942127,N,Y,37.3184052,-121.8416337
MLS Listing,,Single Family Residential,7244 Wild Creek Dr,San Jose,CA,95120,1349000,3,2.5,SAN JOSE,1470,2333,1985,10,918,72,Active,September-30-2023 01:00 PM,September-30-2023 04:00 PM,https://www.redfin.com/CA/San-Jose/7244-Wild-Creek-Dr-95120/home/1014666,MLSListings,ML81941955,N,Y,37.1992761,-121.82854
MLS Listing,,Single Family Residential,493 Curie Dr,San Jose,CA,95123,1249000,3,2.0,SAN JOSE,1412,5590,1969,10,885,,Active,,,https://www.redfin.com/CA/San-Jose/493-Curie-Dr-95123/home/1362166,MLSListings,ML81941778,N,Y,37.2304761,-121.8186915
MLS Listing,,Condo/Co-op,5967 Flash Ct,San Jose,CA,95119,964900,2,2.5,SAN JOSE,1355,,2023,10,712,400,Active,September-30-2023 01:00 PM,September-30-2023 04:00 PM,https://www.redfin.com/CA/San-Jose/5967-Flash-Ct-95119/home/186468667,MLSListings,ML81942483,N,Y,37.240938,-121.7867388
MLS Listing,,Condo/Co-op,2988 Grassina St #219,San Jose,CA,95136,948888,3,2.0,SAN JOSE,1405,,2006,10,675,604,Active,September-30-2023 02:00 PM,September-30-2023 04:00 PM,https://www.redfin.com/CA/San-Jose/2988-Grassina-St-95136/unit-219/home/2124350,MLSListings,ML81942478,N,Y,37.286063,-121.860895
MLS Listing,,Condo/Co-op,3901 Lick Mill Blvd #112,Santa Clara,CA,95054,750000,1,1.0,,900,900,2005,10,833,414,Active,,,https://www.redfin.com/CA/Santa-Clara/3901-Lick-Mill-Blvd-95054/unit-112/home/12177773,"bridgeMLS, Bay East AOR, or Contra Costa AOR",41039478,N,Y,37.3962174,-121.9428996
MLS Listing,,Single Family Residential,5911 Crossmont Cir,San Jose,CA,95120,2448000,4,3.0,SAN JOSE,3260,9868,1979,10,751,,Active,September-30-2023 01:30 PM,September-30-2023 03:30 PM,https://www.redfin.com/CA/San-Jose/5911-Crossmont-Cir-95120/home/1003498,MLSListings,ML81942465,N,Y,37.2340618,-121.8650225
MLS Listing,,Single Family Residential,2974 Neal Ave,San Jose,CA,95128,1599000,3,2.0,SAN JOSE,1591,10759,1956,10,1005,,Active,September-30-2023 01:00 PM,September-30-2023 04:00 PM,https://www.redfin.com/CA/San-Jose/2974-Neal-Ave-95128/home/595955,MLSListings,ML81942303,N,Y,37.3108196,-121.9471111
MLS Listing,,Single Family Residential,2210 Laurelei Ave,San Jose,CA,95128,1799000,4,2.5,SAN JOSE,2105,10189,1960,10,855,,Active,,,https://www.redfin.com/CA/San-Jose/2210-Laurelei-Ave-95128/home/1073244,MLSListings,ML81942032,N,Y,37.3298502,-121.9396227
MLS Listing,,Condo/Co-op,809 Auzerais Ave #149,San Jose,CA,95126,849000,2,2.0,SAN JOSE,1229,1556,2008,10,691,581,Active,,,https://www.redfin.com/CA/San-Jose/809-Auzerais-Ave-95126/unit-149/home/17288064,MLSListings,ML81939997,N,Y,37.3216237,-121.9049519
MLS Listing,,Single Family Residential,5152 Felter Rd,San Jose,CA,95132,2090000,5,3.0,SAN JOSE,3000,99752,1960,10,697,,Active,,,https://www.redfin.com/CA/San-Jose/5152-Felter-Rd-95132/home/63836991,MLSListings,ML81942413,N,Y,37.4337893,-121.8155578
MLS Listing,,Single Family Residential,1161 Old Oak Dr,San Jose,CA,95120,2800000,4,3.5,SAN JOSE,2364,8414,1965,10,1184,,Active,September-30-2023 01:30 PM,September-30-2023 04:30 PM,https://www.redfin.com/CA/San-Jose/1161-Old-Oak-Dr-95120/home/1586726,MLSListings,ML81942410,N,Y,37.2163566,-121.8633308
MLS Listing,,Condo/Co-op,801 Winchester Blvd #1208,San Jose,CA,95128,825000,2,2.0,SAN JOSE,990,1205,2005,10,833,399,Active,September-30-2023 02:00 PM,September-30-2023 04:00 PM,https://www.redfin.com/CA/San-Jose/801-S-Winchester-Blvd-95128/unit-1208/home/2125009,MLSListings,ML81941662,N,Y,37.3130055,-121.9503845
MLS Listing,,Single Family Residential,5601 Drysdale Dr,San Jose,CA,95124,1888000,4,2.0,SAN JOSE,1410,6349,1960,10,1339,,Active,September-30-2023 01:00 PM,September-30-2023 04:00 PM,https://www.redfin.com/CA/San-Jose/5601-Drysdale-Dr-95124/home/555689,MLSListings,ML81932474,N,Y,37.2361264,-121.9081437
MLS Listing,,Single Family Residential,4274 Colombo Dr,San Jose,CA,95130,1930000,3,2.0,W.SAN JOSE,1505,8625,1960,10,1282,,Active,,,https://www.redfin.com/CA/San-Jose/4274-Colombo-Dr-95130/home/838307,"bridgeMLS, Bay East AOR, or Contra Costa AOR",41039548,N,Y,37.2962342,-121.977859
MLS Listing,,Single Family Residential,3479 Nova Scotia Ave,San Jose,CA,95124,1399000,3,2.5,SAN JOSE,1820,3049,1979,10,769,,Active,September-30-2023 01:30 PM,September-30-2023 04:30 PM,https://www.redfin.com/CA/San-Jose/3479-Nova-Scotia-Ave-95124/home/1664028,MLSListings,ML81942195,N,Y,37.2634479,-121.9412565
MLS Listing,,Condo/Co-op,2458 Balme Dr,San Jose,CA,95122,399000,1,1.0,SAN JOSE,648,,1984,10,616,340,Active,,,https://www.redfin.com/CA/San-Jose/2458-Balme-Dr-95122/home/998492,MLSListings,ML81942375,N,Y,37.3158365,-121.8375169
MLS Listing,,Mobile/Manufactured Home,2135 Little Orchard St #78,San Jose,CA,95125,415000,3,2.0,SAN JOSE,960,,2015,10,432,,Active,October-7-2023 01:00 PM,October-7-2023 04:00 PM,https://www.redfin.com/CA/San-Jose/2135-Little-Orchard-St-95125/unit-78/home/18900617,MLSListings,ML81942374,N,Y,37.3017079,-121.8698141
MLS Listing,,Single Family Residential,1437 Gerhardt Ave,San Jose,CA,95125,3390000,5,4.5,SAN JOSE,3487,7560,2023,11,972,,Active,,,https://www.redfin.com/CA/San-Jose/1437-Gerhardt-Ave-95125/home/1457723,MLSListings,ML81942365,N,Y,37.2800099,-121.893038
MLS Listing,,Single Family Residential,444 Josefa St,San Jose,CA,95126,600000,2,2.0,SAN JOSE,722,4511,1900,11,831,,Active,,,https://www.redfin.com/CA/San-Jose/444-Josefa-St-95126/home/1577441,MLSListings,ML81942350,N,Y,37.3237672,-121.8963381
MLS Listing,,Single Family Residential,471 Chinook Ln,San Jose,CA,95123,1260000,3,2.0,SAN JOSE,1461,5877,1966,11,862,,Active,September-30-2023 10:00 AM,September-30-2023 02:00 PM,https://www.redfin.com/CA/San-Jose/471-Chinook-Ln-95123/home/986825,MLSListings,ML81941911,N,Y,37.2429898,-121.8313792
MLS Listing,,Single Family Residential,5010 Narvaez Ave,San Jose,CA,95136,1895000,4,3.0,SAN JOSE,2515,11412,2002,11,753,,Active,,,https://www.redfin.com/CA/San-Jose/5010-Narvaez-Ave-95136/home/1609664,MLSListings,ML81942342,N,Y,37.2641355,-121.8543553
MLS Listing,,Condo/Co-op,1365 Mckinley Ct,San Jose,CA,95126,995000,3,3.0,San Jose,1311,871,2007,11,759,359,Active,October-1-2023 01:00 PM,October-1-2023 04:00 PM,https://www.redfin.com/CA/San-Jose/1365-McKinley-Ct-95126/home/23048267,San Francisco MLS,423910428,N,Y,37.3074453,-121.9152098
MLS Listing,,Single Family Residential,564 Giant Way,San Jose,CA,95127,1678900,4,3.0,SAN JOSE,3177,11754,1955,11,528,,Active,September-30-2023 01:30 PM,September-30-2023 04:30 PM,https://www.redfin.com/CA/San-Jose/564-Giant-Way-95127/home/1091802,MLSListings,ML81933562,N,Y,37.3664716,-121.8119983
MLS Listing,,Multi-Family (2-4 Unit),1476 Curtner Ave,San Jose,CA,95125,1690000,4,4.0,SAN JOSE,2475,8970,1972,12,683,,Active,September-30-2023 01:00 PM,September-30-2023 04:00 PM,https://www.redfin.com/CA/San-Jose/1476-Curtner-Ave-95125/home/846692,MLSListings,ML81942238,N,Y,37.285614,-121.898675
MLS Listing,,Single Family Residential,5079 Ella Ct,San Jose,CA,95111,987777,3,2.0,SAN JOSE,1125,5803,1962,12,878,,Active,September-30-2023 12:00 PM,September-30-2023 02:00 PM,https://www.redfin.com/CA/San-Jose/5079-Ella-Ct-95111/home/1146964,MLSListings,ML81942251,N,Y,37.2706202,-121.8088169
MLS Listing,,Townhouse,3762 Jasmine Cir,San Jose,CA,95135,1250000,3,2.5,SAN JOSE,1346,5091,1999,12,929,255,Active,,,https://www.redfin.com/CA/San-Jose/3762-Jasmine-Cir-95135/home/1624677,MLSListings,ML81939061,N,Y,37.3091719,-121.756739
MLS Listing,,Condo/Co-op,563 Shadow Dance Dr,San Jose,CA,95125,599000,2,2.0,SAN JOSE,871,871,1987,12,688,380,Active,,,https://www.redfin.com/CA/San-Jose/563-Shadow-Dance-Dr-95110/home/1728364,MLSListings,ML81942096,N,Y,37.3090819,-121.881281
MLS Listing,,Single Family Residential,4943 Zeppelin Ct,San Jose,CA,95111,1550000,4,2.5,SAN JOSE,1954,6720,1976,12,793,,Active,September-30-2023 01:00 PM,September-30-2023 04:00 PM,https://www.redfin.com/CA/San-Jose/4943-Zeppelin-Ct-95111/home/1092527,MLSListings,ML81942227,N,Y,37.267207,-121.8185103
MLS Listing,,Single Family Residential,404 N 6th St,San Jose,CA,95112,800550,2,1.0,San Jose,1248,5567,1918,13,641,,Active,,,https://www.redfin.com/CA/San-Jose/404-N-6th-St-95112/home/623054,MetroList,223088547,N,Y,37.3454656,-121.8899763
MLS Listing,,Condo/Co-op,88 N Jackson Ave #306,San Jose,CA,95116,689888,3,2.0,SAN JOSE CC,1200,1200,2006,13,575,535,Active,September-30-2023 01:00 PM,September-30-2023 04:00 PM,https://www.redfin.com/CA/San-Jose/88-N-Jackson-Ave-95116/unit-306/home/2124717,"bridgeMLS, Bay East AOR, or Contra Costa AOR",41039000,N,Y,37.3613828,-121.8449079
MLS Listing,,Single Family Residential,4585 Vanderbilt Dr,San Jose,CA,95130,3498888,4,3.5,SAN JOSE,2853,6392,2023,14,1226,,Active,September-30-2023 02:00 PM,September-30-2023 04:00 PM,https://www.redfin.com/CA/San-Jose/4585-Vanderbilt-Dr-95130/home/1345536,MLSListings,ML81942168,N,Y,37.279231,-121.9819018
MLS Listing,,Single Family Residential,2443 Raleigh Dr,San Jose,CA,95124,2399000,4,2.5,WILLOW GLEN,2449,9630,1964,14,980,63,Active,September-30-2023 01:30 PM,September-30-2023 04:30 PM,https://www.redfin.com/CA/San-Jose/2443-Raleigh-Dr-95124/home/1218320,"bridgeMLS, Bay East AOR, or Contra Costa AOR",41039006,N,Y,37.2792655,-121.9129651
MLS Listing,,Single Family Residential,1368 Rimrock Dr,San Jose,CA,95120,2498800,4,2.5,SAN JOSE,2544,16069,1970,14,982,,Active,October-1-2023 01:00 PM,October-1-2023 04:00 PM,https://www.redfin.com/CA/San-Jose/1368-Rimrock-Dr-95120/home/1605992,MLSListings,ML81942071,N,Y,37.2059812,-121.869025
MLS Listing,,Condo/Co-op,247 N Capital #161,San Jose,CA,95127,429000,1,1.0,San Jose,777,706,1977,14,552,405,Active,,,https://www.redfin.com/CA/San-Jose/247-N-Capitol-Ave-95127/unit-161/home/1335635,MetroList,223090480,N,Y,37.3674985,-121.8412123
MLS Listing,,Condo/Co-op,309 Tradewinds Dr #9,San Jose,CA,95123,464900,1,1.0,SAN JOSE,722,,1970,14,644,383,Active,September-30-2023 02:00 PM,September-30-2023 05:00 PM,https://www.redfin.com/CA/San-Jose/309-Tradewinds-Dr-95123/unit-9/home/1170719,MLSListings,ML81941511,N,Y,37.2550695,-121.8278305
MLS Listing,,Single Family Residential,860 S 8th St,San Jose,CA,95112,1398800,5,3.5,SAN JOSE,2410,6348,1918,14,580,,Active,September-30-2023 11:00 AM,September-30-2023 02:00 PM,https://www.redfin.com/CA/San-Jose/860-S-8th-St-95112/home/1597371,MLSListings,ML81942101,N,Y,37.3268297,-121.8729051
MLS Listing,,Townhouse,891 Georgetown Pl,San Jose,CA,95126,1249000,3,3.0,DOWNTOWN,1625,814,2004,14,769,400,Active,September-30-2023 01:00 PM,September-30-2023 04:30 PM,https://www.redfin.com/CA/San-Jose/891-Georgetown-Pl-95126/home/1412126,"bridgeMLS, Bay East AOR, or Contra Costa AOR",41039341,N,Y,37.32874,-121.9058792
MLS Listing,,Condo/Co-op,247 N Capitol Ave #229,San Jose,CA,95127,498888,1,1.0,SAN JOSE,777,,1977,14,642,409,Active,,,https://www.redfin.com/CA/San-Jose/247-N-Capitol-Ave-95127/unit-229/home/666962,MLSListings,ML81933084,N,Y,37.3674985,-121.8412123
MLS Listing,,Condo/Co-op,1226 Coyote Creek Ct,San Jose,CA,95116,605000,2,2.0,SAN JOSE,849,,1984,14,713,328,Active,,,https://www.redfin.com/CA/San-Jose/1226-Coyote-Creek-Ct-95116/home/700574,MLSListings,ML81942086,N,Y,37.352245,-121.871558
MLS Listing,,Multi-Family (5+ Unit),593 S 6th St,San Jose,CA,95112,1800000,0,,SAN JOSE,2908,10024,1898,14,619,,Active,,,https://www.redfin.com/CA/San-Jose/593-S-6th-St-95112/home/832156,MLSListings,ML81942081,N,Y,37.3297161,-121.8789194
MLS Listing,,Condo/Co-op,144 S 3rd St #536,San Jose,CA,95112,799999,2,2.0,SAN JOSE,1421,,1997,14,563,794,Active,September-30-2023 01:30 PM,September-30-2023 04:30 PM,https://www.redfin.com/CA/San-Jose/144-S-3rd-St-95112/unit-536/home/903146,MLSListings,ML81942062,N,Y,37.3339721,-121.8857869
MLS Listing,,Mobile/Manufactured Home,2135 Little Orchard St #14,San Jose,CA,95125,419900,2,2.0,SAN JOSE,1056,,2015,14,398,,Active,,,https://www.redfin.com/CA/San-Jose/2135-Little-Orchard-St-95125/unit-14/home/186158975,MLSListings,ML81942048,N,Y,37.3014893,-121.8706371
MLS Listing,,Single Family Residential,1724 Dry Creek Rd,San Jose,CA,95125,8888888,10,11.5,San Jose,19550,16958,2024,14,455,,Active,,,https://www.redfin.com/CA/San-Jose/1724-Dry-Creek-Rd-95125/home/1766101,TheMLS,23-311833,N,Y,37.2873991,-121.9110645
MLS Listing,,Single Family Residential,1343 Willow St,San Jose,CA,95125,2795000,5,3.5,SAN JOSE,3290,10462,1949,14,850,,Active,September-30-2023 11:00 AM,September-30-2023 06:00 PM,https://www.redfin.com/CA/San-Jose/1343-Willow-St-95125/home/712952,MLSListings,ML81942044,N,Y,37.3042357,-121.9108423
MLS Listing,,Townhouse,3591 Ivalynn Cir,San Jose,CA,95132,850000,2,2.5,SAN JOSE,1123,435,1986,14,757,465,Active,,,https://www.redfin.com/CA/San-Jose/3591-Ivalynn-Cir-95132/home/1341240,MLSListings,ML81941253,N,Y,37.40138,-121.8458237
MLS Listing,,Townhouse,2563 Riparian Ct,San Jose,CA,95133,888000,2,2.5,SAN JOSE,1270,632,2006,14,699,338,Active,September-30-2023 01:00 PM,September-30-2023 04:00 PM,https://www.redfin.com/CA/San-Jose/2563-Riparian-Ct-95133/home/12179995,MLSListings,ML81942023,N,Y,37.3818366,-121.8580642
MLS Listing,,Single Family Residential,83 N King Rd,San Jose,CA,95116,995000,3,1.0,SAN JOSE,1150,10182,1927,14,865,,Active,October-1-2023 02:00 PM,October-1-2023 05:00 PM,https://www.redfin.com/CA/San-Jose/83-N-King-Rd-95116/home/1157953,MLSListings,ML81939294,N,Y,37.3542005,-121.8573062
MLS Listing,,Single Family Residential,1711 Tustin Dr,San Jose,CA,95122,1199888,4,2.0,SAN JOSE,1545,5632,1972,14,777,,Active,September-30-2023 03:00 PM,September-30-2023 05:00 PM,https://www.redfin.com/CA/San-Jose/1711-Tustin-Dr-95122/home/968168,MLSListings,ML81942012,N,Y,37.3124618,-121.815491
MLS Listing,,Townhouse,1837 Landess Ave,Milpitas,CA,95035,825000,3,1.5,MILPITAS,1155,788,1971,15,714,400,Active,September-30-2023 01:00 PM,September-30-2023 04:00 PM,https://www.redfin.com/CA/Milpitas/1837-Landess-Ave-95035/home/1458020,MLSListings,ML81941996,N,Y,37.4181315,-121.8706324
MLS Listing,,Multi-Family (2-4 Unit),"923 Harliss Ave.,",San Jose,CA,95110,1227000,5,3.0,SAN JOSE,1947,5204,1962,15,630,,Active,September-30-2023 02:00 PM,September-30-2023 05:00 PM,https://www.redfin.com/CA/San-Jose/923-Harliss-Ave-95110/home/710430,MLSListings,ML81941991,N,Y,37.318207,-121.8875235
MLS Listing,,Single Family Residential,3398 Rocky Mountain Dr,San Jose,CA,95127,1100000,3,2.5,SAN JOSE,1455,5300,1960,15,756,,Active,,,https://www.redfin.com/CA/San-Jose/3398-Rocky-Mountain-Dr-95127/home/1364002,MLSListings,ML81941988,N,Y,37.3507529,-121.8028989
MLS Listing,,Condo/Co-op,88 E San Fernando St #909,San Jose,CA,95113,699000,1,1.0,SAN JOSE,899,,2008,15,778,935,Active,,,https://www.redfin.com/CA/San-Jose/88-E-San-Fernando-St-95113/unit-909/home/23048601,MLSListings,ML81941957,N,Y,37.3350563,-121.8872863
MLS Listing,,Multi-Family (5+ Unit),649 Nordale Ave,San Jose,CA,95112,1475000,6,5.0,SAN JOSE,3480,6368,1962,15,424,,Active,,,https://www.redfin.com/CA/San-Jose/649-Nordale-Ave-95112/home/1253080,MLSListings,ML81941952,N,Y,37.3187455,-121.856817
MLS Listing,,Single Family Residential,2018 Abbey Ln,Campbell,CA,95008,1998000,4,2.0,CAMPBELL,2036,5986,1972,15,981,,Active,September-30-2023 01:00 PM,September-30-2023 04:30 PM,https://www.redfin.com/CA/Campbell/2018-Abbey-Ln-95008/home/1179316,MLSListings,ML81941949,N,Y,37.2861967,-121.9659963
MLS Listing,,Condo/Co-op,5494 Cribari Bnd,San Jose,CA,95135,490000,2,2.0,SAN JOSE,1223,1546,1970,15,401,966,Active,,,https://www.redfin.com/CA/San-Jose/5494-Cribari-Bnd-95135/home/964763,MLSListings,ML81941752,N,Y,37.294247,-121.756489
MLS Listing,,Townhouse,1485 W San Carlos St,San Jose,CA,95126,998000,3,2.0,SAN JOSE,1468,809,2008,15,680,365,Active,September-30-2023 01:00 PM,September-30-2023 04:00 PM,https://www.redfin.com/CA/San-Jose/1485-W-San-Carlos-St-95126/home/40175492,MLSListings,ML81941936,N,Y,37.3236897,-121.916599
MLS Listing,,Condo/Co-op,117 S 4th St,San Jose,CA,95112,875000,2,2.5,Not Listed,1458,768,1997,15,600,782,Active,,,https://www.redfin.com/CA/San-Jose/117-S-4th-St-95112/home/874274,"bridgeMLS, Bay East AOR, or Contra Costa AOR",41039149,N,Y,37.3348098,-121.8855775
MLS Listing,,Single Family Residential,958 Kingfisher Dr,San Jose,CA,95125,1698000,5,2.0,SAN JOSE,2150,6331,1955,15,790,,Active,September-30-2023 01:00 PM,September-30-2023 04:00 PM,https://www.redfin.com/CA/San-Jose/958-Kingfisher-Dr-95125/home/613000,MLSListings,ML81941917,N,Y,37.2860635,-121.880787
MLS Listing,,Single Family Residential,5410 Ligurian Dr,San Jose,CA,95138,2880000,4,3.0,SAN JOSE,3112,12374,1996,15,925,195,Active,September-30-2023 01:00 PM,September-30-2023 04:00 PM,https://www.redfin.com/CA/San-Jose/5410-Ligurian-Dr-95138/home/1219165,MLSListings,ML81941913,N,Y,37.282508,-121.7649804
MLS Listing,,Condo/Co-op,351 Oleander Dr,San Jose,CA,95123,818000,2,2.0,SAN JOSE,981,,1998,15,834,310,Active,September-30-2023 01:30 PM,September-30-2023 04:30 PM,https://www.redfin.com/CA/San-Jose/351-Oleander-Dr-95123/home/990710,MLSListings,ML81941902,N,Y,37.2405177,-121.8048695
MLS Listing,,Condo/Co-op,247 N Capitol Ave #138,San Jose,CA,95127,499000,2,2.0,SAN JOSE,955,,1977,15,523,405,Active,,,https://www.redfin.com/CA/San-Jose/247-N-Capitol-Ave-95127/unit-138/home/1729440,MLSListings,ML81941455,N,Y,37.3674985,-121.8412123
MLS Listing,,Condo/Co-op,1475 De Rose Way Unit 248A,San Jose,CA,95126,749000,2,2.5,SAN JOSE,1224,,1976,15,612,512,Active,September-30-2023 02:00 PM,September-30-2023 04:00 PM,https://www.redfin.com/CA/San-Jose/1475-De-Rose-Way-95126/unit-248A/home/728680,MLSListings,ML81941869,N,Y,37.3059766,-121.9200059
MLS Listing,,Single Family Residential,5364 Federation Ct,San Jose,CA,95123,1250000,4,2.0,SAN JOSE,1501,6055,1977,15,833,,Active,September-30-2023 01:00 PM,September-30-2023 04:00 PM,https://www.redfin.com/CA/San-Jose/5364-Federation-Ct-95123/home/1731753,MLSListings,ML81941867,N,Y,37.2572771,-121.8069724
MLS Listing,,Single Family Residential,384 Springpark Cir,San Jose,CA,95136,1388887,4,3.0,SAN JOSE,1755,5445,1968,15,791,,Active,,,https://www.redfin.com/CA/San-Jose/384-Springpark-Cir-95136/home/867104,MLSListings,ML81941859,N,Y,37.2694678,-121.8475211
MLS Listing,,Single Family Residential,2372 Pentland Way,San Jose,CA,95148,1299000,3,2.0,SAN JOSE,1893,6120,1979,16,686,,Active,,,https://www.redfin.com/CA/San-Jose/2372-Pentland-Way-95148/home/1146688,MLSListings,ML81941817,N,Y,37.3148731,-121.7984935
MLS Listing,,Single Family Residential,549 Serenade Way,San Jose,CA,95111,959999,3,2.0,SAN JOSE,1137,4964,1958,16,844,,Active,,,https://www.redfin.com/CA/San-Jose/549-Serenade-Way-95111/home/1610887,MLSListings,ML81941806,N,Y,37.2789092,-121.8183278
MLS Listing,,Condo/Co-op,1550 Technology Dr #1000,San Jose,CA,95110,788888,2,2.0,SAN JOSE,1162,1077,2005,16,679,570,Active,,,https://www.redfin.com/CA/San-Jose/1550-Technology-Dr-95110/unit-1000/home/2125204,MLSListings,ML81940202,N,Y,37.3629302,-121.9146208
MLS Listing,,Multi-Family (2-4 Unit),1460 Curtner Ave,San Jose,CA,95125,1749000,,,SAN JOSE,2638,8144,1972,16,663,,Active,,,https://www.redfin.com/CA/San-Jose/1460-Curtner-Ave-95125/home/1218269,MLSListings,ML81941775,N,Y,37.285783,-121.898247
MLS Listing,,Single Family Residential,2373 Richland Ave,San Jose,CA,95125,3799000,6,4.5,SAN JOSE,3952,9157,2007,16,961,,Active,September-30-2023 01:00 PM,September-30-2023 04:00 PM,https://www.redfin.com/CA/San-Jose/2373-Richland-Ave-95125/home/1338623,MLSListings,ML81941768,N,Y,37.2864582,-121.8895688
MLS Listing,,Multi-Family (2-4 Unit),156 N 12th St,San Jose,CA,95112,1050000,3,,San Jose,1450,4905,1918,16,724,,Active,,,https://www.redfin.com/CA/San-Jose/156-N-12th-St-95112/home/1418141,"bridgeMLS, Bay East AOR, or Contra Costa AOR",41038995,N,Y,37.344019,-121.8806092
MLS Listing,,Townhouse,676 Harrison Ter #8,San Jose,CA,95125,1149888,4,3.5,SAN JOSE,1835,1024,2007,16,627,330,Active,September-30-2023 12:00 PM,September-30-2023 03:00 PM,https://www.redfin.com/CA/San-Jose/676-Harrison-Ter-95125/unit-8/home/173146415,MLSListings,ML81938326,N,Y,37.3199158,-121.8983054
MLS Listing,,Condo/Co-op,88 E San Fernando St #509,San Jose,CA,95113,615000,1,1.0,SAN JOSE,848,,2008,16,725,920,Active,,,https://www.redfin.com/CA/San-Jose/88-E-San-Fernando-St-95113/unit-509/home/23048918,MLSListings,ML81941748,N,Y,37.3350563,-121.8872863
MLS Listing,,Condo/Co-op,288 Stonegate,Alviso (san Jose),CA,95110,420000,1,1.0,ALMADEN,468,648,1984,16,897,296,Active,,,https://www.redfin.com/CA/San-Jose/288-Stonegate-Cir-95110/home/1334385,"bridgeMLS, Bay East AOR, or Contra Costa AOR",41038975,N,Y,37.3120569,-121.8796976
MLS Listing,,Single Family Residential,2645 Paganini Ave,San Jose,CA,95122,929000,3,1.0,SAN JOSE,1043,5345,1961,16,891,,Active,September-30-2023 01:00 PM,September-30-2023 04:00 PM,https://www.redfin.com/CA/San-Jose/2645-Paganini-Ave-95122/home/718851,MLSListings,ML81941623,N,Y,37.3204819,-121.8164698
MLS Listing,,Single Family Residential,220 FRAGRANT HARBOR Ct,San Jose,CA,95123,1399999,3,2.5,SAN JOSE,1644,4100,1989,16,852,,Active,September-30-2023 01:00 PM,September-30-2023 04:00 PM,https://www.redfin.com/CA/San-Jose/220-Fragrant-Harbor-Ct-95123/home/992617,MLSListings,ML81941736,N,Y,37.2558619,-121.8254662
MLS Listing,,Single Family Residential,1015 Jackson St,San Jose,CA,95112,1290000,3,2.0,SAN JOSE,1684,4104,1910,16,766,,Active,September-30-2023 12:00 PM,September-30-2023 04:30 PM,https://www.redfin.com/CA/San-Jose/1015-Jackson-St-95112/home/1671628,MLSListings,ML81940949,N,Y,37.3568247,-121.8783858
MLS Listing,,Single Family Residential,1010 Spencer Ave,San Jose,CA,95125,1999000,4,3.0,SAN JOSE,2057,5743,1916,16,972,,Active,,,https://www.redfin.com/CA/San-Jose/1010-Spencer-Ave-95125/home/994182,MLSListings,ML81941689,N,Y,37.3145084,-121.8917697
MLS Listing,,Single Family Residential,217 Chalet Ave,San Jose,CA,95127,899000,3,2.0,,1404,6000,1959,17,640,,Active,,,https://www.redfin.com/CA/San-Jose/217-Chalet-Ave-95127/home/1807275,"bridgeMLS, Bay East AOR, or Contra Costa AOR",41038937,N,Y,37.3722672,-121.8348881
MLS Listing,,Single Family Residential,3590 Moorpark Ave,San Jose,CA,95117,1232000,3,2.0,SAN JOSE,1143,7539,1955,17,1078,,Active,,,https://www.redfin.com/CA/San-Jose/3590-Moorpark-Ave-95117/home/648611,MLSListings,ML81937686,N,Y,37.3158183,-121.9617308
MLS Listing,,Single Family Residential,5503 Copeland Ct,San Jose,CA,95124,2398000,4,2.5,SAN JOSE,2241,8000,1968,17,1070,,Active,September-30-2023 01:00 PM,September-30-2023 04:00 PM,https://www.redfin.com/CA/San-Jose/5503-Copeland-Ct-95124/home/913528,MLSListings,ML81940962,N,Y,37.2374741,-121.9195973
MLS Listing,,Townhouse,2096 Mendocino Ln,San Jose,CA,95124,1269000,2,2.0,SAN JOSE,1396,1891,2007,17,909,298,Active,,,https://www.redfin.com/CA/San-Jose/2096-Mendocino-Ln-95124/home/23043329,MLSListings,ML81941665,N,Y,37.250981,-121.93581
MLS Listing,,Mobile/Manufactured Home,2150 Monterey Hwy #9,San Jose,CA,95112,269900,2,2.0,SAN JOSE,550,,1966,17,491,,Active,September-30-2023 11:00 AM,September-30-2023 02:00 PM,https://www.redfin.com/CA/San-Jose/2150-Monterey-Hwy-95112/unit-9/home/187452920,MLSListings,ML81941656,N,Y,37.3048148,-121.8618422
MLS Listing,,Multi-Family (2-4 Unit),3188 Moorpark Ave,San Jose,CA,95117,1850000,8,4.0,SAN JOSE,3136,6565,1958,17,590,,Active,,,https://www.redfin.com/CA/San-Jose/3188-Moorpark-Ave-95117/home/187451539,MLSListings,ML81941641,N,Y,37.315839,-121.95268
MLS Listing,,Condo/Co-op,88 N Jackson Ave #118,San Jose,CA,95116,659888,3,2.0,SAN JOSE,1200,882,2006,17,550,535,Active,September-30-2023 12:00 PM,September-30-2023 03:00 PM,https://www.redfin.com/CA/San-Jose/88-N-Jackson-Ave-95116/unit-118/home/17290072,MLSListings,ML81939087,N,Y,37.3613828,-121.8449079
MLS Listing,,Single Family Residential,771 N 16th St,San Jose,CA,95112,715000,2,1.0,SAN JOSE,1080,6631,1947,17,662,,Active,,,https://www.redfin.com/CA/San-Jose/771-N-16th-St-95112/home/1633934,MLSListings,ML81941121,N,Y,37.357609,-121.8861673
MLS Listing,,Townhouse,262 Element Rd,San Jose,CA,95110,939000,2,2.5,SAN JOSE,1301,378,2019,17,722,309,Active,October-1-2023 01:00 PM,October-1-2023 03:00 PM,https://www.redfin.com/CA/San-Jose/262-Element-Rd-95110/home/172937902,MLSListings,ML81941601,N,Y,37.3388618,-121.89686
MLS Listing,,Single Family Residential,14455 Bercaw Ln,San Jose,CA,95124,3475000,5,5.5,SAN JOSE,3979,17393,2007,17,873,,Active,,,https://www.redfin.com/CA/San-Jose/14455-Bercaw-Ln-95124/home/1098499,MLSListings,ML81941597,N,Y,37.2588016,-121.9297782
MLS Listing,,Single Family Residential,5891 Pontius Ct,San Jose,CA,95123,1399999,4,2.0,SAN JOSE,1342,5941,1971,17,1043,,Active,September-30-2023 01:30 PM,September-30-2023 04:30 PM,https://www.redfin.com/CA/San-Jose/5891-Pontius-Ct-95123/home/1749576,MLSListings,ML81941588,N,Y,37.2423786,-121.820635
MLS Listing,,Condo/Co-op,1550 Technology Dr #2074,San Jose,CA,95110,790000,2,2.0,SAN JOSE,1133,,2005,18,697,564,Active,,,https://www.redfin.com/CA/San-Jose/1550-Technology-Dr-95110/unit-2074/home/2123292,MLSListings,ML81939636,N,Y,37.3629302,-121.9146208
MLS Listing,,Single Family Residential,1419 Hurlingham Way,San Jose,CA,95127,949999,3,2.0,SAN JOSE,1188,5335,1955,18,800,,Active,,,https://www.redfin.com/CA/San-Jose/1419-Hurlingham-Way-95127/home/787286,MLSListings,ML81941549,N,Y,37.3496781,-121.8163586
MLS Listing,,Single Family Residential,6821 Silver Creek Rd,San Jose,CA,95138,6995000,2,1.0,SAN JOSE,1200,4486244,1994,18,5829,,Active,,,https://www.redfin.com/CA/San-Jose/6821-Silver-Creek-Rd-95138/home/12261791,MLSListings,ML81941525,N,Y,37.2643092,-121.747352
MLS Listing,,Condo/Co-op,5051 Cribari Vale,San Jose,CA,95135,498000,2,2.0,SAN JOSE,1240,,1968,18,402,966,Active,,,https://www.redfin.com/CA/San-Jose/5051-Cribari-Vale-95135/home/963163,MLSListings,ML81941522,N,Y,37.2934068,-121.7527097
MLS Listing,,Single Family Residential,1287 Yosemite Ave,San Jose,CA,95126,1999999,4,4.5,SAN JOSE,2704,6912,1916,18,740,,Active,September-30-2023 01:00 PM,September-30-2023 05:00 PM,https://www.redfin.com/CA/San-Jose/1287-Yosemite-Ave-95126/home/1342535,MLSListings,ML81940744,N,Y,37.3282636,-121.9138207
MLS Listing,,Multi-Family (2-4 Unit),1795 Bradford Way,San Jose,CA,95124,1950888,8,4.0,SAN JOSE,3328,6935,1961,18,586,,Active,,,https://www.redfin.com/CA/San-Jose/1795-Bradford-Way-95124/home/1384950,MLSListings,ML81941515,N,Y,37.2614713,-121.9166879
MLS Listing,,Single Family Residential,615 Curie Dr,San Jose,CA,95123,1575000,3,2.0,SAN JOSE,1695,7202,1967,18,929,,Active,September-30-2023 01:30 PM,September-30-2023 04:30 PM,https://www.redfin.com/CA/San-Jose/615-Curie-Dr-95123/home/986699,MLSListings,ML81941504,N,Y,37.2303498,-121.8287194
MLS Listing,,Single Family Residential,252 Sposito Cir,San Jose,CA,95136,1388888,4,2.0,SAN JOSE,1581,6060,1972,18,878,34,Active,,,https://www.redfin.com/CA/San-Jose/252-Sposito-Cir-95136/home/702204,MLSListings,ML81941469,N,Y,37.2684206,-121.8412832
MLS Listing,,Condo/Co-op,7712 GALLOWAY Dr,San Jose,CA,95135,710000,2,2.0,SAN JOSE,1490,,1989,19,477,1238,Active,,,https://www.redfin.com/CA/San-Jose/7712-Galloway-Dr-95135/home/1618632,MLSListings,ML81941458,N,Y,37.289391,-121.7391716
MLS Listing,,Condo/Co-op,800 N 8th St #316,San Jose,CA,95112,875000,2,2.0,Not Listed,1399,435,2004,19,625,680,Active,,,https://www.redfin.com/CA/San-Jose/800-N-8th-St-95112/unit-316/home/674195,"bridgeMLS, Bay East AOR, or Contra Costa AOR",41036965,N,Y,37.3554157,-121.8944152
MLS Listing,,Condo/Co-op,5085 Cribari Blfs,San Jose,CA,95135,493000,2,2.0,SAN JOSE,1223,,1969,19,403,966,Active,,,https://www.redfin.com/CA/San-Jose/5085-Cribari-Blfs-95135/home/1109217,MLSListings,ML81941444,N,Y,37.2948801,-121.7526347
MLS Listing,,Condo/Co-op,5505 Cribari Bnd,San Jose,CA,95135,500000,2,2.0,SAN JOSE,1240,,1970,19,403,880,Active,,,https://www.redfin.com/CA/San-Jose/5505-Cribari-Bnd-95135/home/1636804,MLSListings,ML81939559,N,Y,37.293603,-121.756322
MLS Listing,,Vacant Land,22601 San Vicente Ave,San Jose,CA,95120,1950000,,,SAN JOSE,,651985,,20,,,Active,,,https://www.redfin.com/CA/San-Jose/22601-San-Vicente-Ave-95120/home/1031992,MLSListings,ML81941425,N,Y,37.201636,-121.799042
MLS Listing,,Condo/Co-op,334 Santana Row #325,San Jose,CA,95128,1300000,2,1.5,SAN JOSE,1099,,2002,20,1183,776,Active,,,https://www.redfin.com/CA/San-Jose/334-Santana-Row-95128/unit-325/home/17293121,MLSListings,ML81941407,N,Y,37.3222527,-121.947416
MLS Listing,,Townhouse,705 Batista Dr,San Jose,CA,95136,1049000,3,2.5,Not Listed,1810,836,2005,20,580,289,Active,September-30-2023 01:00 PM,September-30-2023 05:00 PM,https://www.redfin.com/CA/San-Jose/705-Batista-Dr-95136/home/2124337,"bridgeMLS, Bay East AOR, or Contra Costa AOR",41038483,N,Y,37.286614,-121.862179
MLS Listing,,Multi-Family (2-4 Unit),2067/2069 Willester Ave,San Jose,CA,95124,1595000,4,2.0,SAN JOSE,1887,7108,1960,20,845,,Active,,,https://www.redfin.com/CA/San-Jose/2067-Willester-Ave-95124/home/187529727,MLSListings,ML81941391,N,Y,37.2666109,-121.9339572
MLS Listing,,Mobile/Manufactured Home,2699 Whispering Hills Rd #2699,San Jose,CA,95148,365000,2,2.0,SAN JOSE,2040,,1978,20,179,,Active,,,https://www.redfin.com/CA/San-Jose/2699-Whispering-Hills-Rd-95148/unit-2699/home/187410459,MLSListings,ML81941388,N,Y,37.31852,-121.8059247
MLS Listing,,Multi-Family (2-4 Unit),2531 Skylark Dr,San Jose,CA,95125,1749000,5,4.0,SAN JOSE,2413,9978,1970,20,725,,Active,,,https://www.redfin.com/CA/San-Jose/2531-Skylark-Dr-95125/home/1607352,MLSListings,ML81939873,N,Y,37.2855653,-121.8820098
MLS Listing,,Single Family Residential,761 Fleming Ave,San Jose,CA,95127,3299000,5,3.0,SAN JOSE,2691,83246,1956,21,1226,,Active,,,https://www.redfin.com/CA/San-Jose/761-Fleming-Ave-95127/home/948085,MLSListings,ML81941347,N,Y,37.3681773,-121.8090616
MLS Listing,,Mobile/Manufactured Home,402 Los Encinos Ave #402,San Jose,CA,95134,189000,2,2.0,SAN JOSE,792,,1976,21,239,,Active,,,https://www.redfin.com/CA/San-Jose/402-Los-Encinos-Ave-95134/unit-402/home/168637678,MLSListings,ML81941342,N,Y,37.415083,-121.9469339
MLS Listing,,Single Family Residential,443 Marshall Ave,San Jose,CA,95125,1798000,3,2.0,SAN JOSE,1616,5573,1908,21,1113,,Active,October-1-2023 02:00 PM,October-1-2023 05:00 PM,https://www.redfin.com/CA/San-Jose/443-Marshall-Ave-95125/home/712735,MLSListings,ML81941308,N,Y,37.3145376,-121.894304
MLS Listing,,Single Family Residential,19573 Almaden Rd,San Jose,CA,95120,2195000,4,2.5,SAN JOSE,2526,39538,1977,21,869,,Active,September-30-2023 01:00 PM,September-30-2023 04:00 PM,https://www.redfin.com/CA/San-Jose/19573-Almaden-Rd-95120/home/573606,MLSListings,ML81941332,N,Y,37.1941428,-121.8326194
MLS Listing,,Condo/Co-op,30 E Julian St #318,San Jose,CA,95112,988000,3,3.0,SAN JOSE,1741,,2000,21,567,776,Active,September-30-2023 01:30 PM,September-30-2023 04:30 PM,https://www.redfin.com/CA/San-Jose/30-E-Julian-St-95112/unit-318/home/1040619,MLSListings,ML81940796,N,Y,37.3405784,-121.8933925
MLS Listing,,Condo/Co-op,333 Santana Row #311,San Jose,CA,95128,1300000,2,1.5,SAN JOSE,1099,,2002,21,1183,767,Active,September-30-2023 01:30 PM,September-30-2023 04:30 PM,https://www.redfin.com/CA/San-Jose/333-Santana-Row-95128/unit-311/home/17293052,MLSListings,ML81938396,N,Y,37.3219255,-121.948418
MLS Listing,,Condo/Co-op,5206 Cribari Hls,San Jose,CA,95135,495888,2,2.0,SAN JOSE,1240,,1972,21,400,976,Active,,,https://www.redfin.com/CA/San-Jose/5206-Cribari-Hls-95135/home/908081,MLSListings,ML81941289,N,Y,37.296555,-121.754136
MLS Listing,,Condo/Co-op,697 Blackford Ct,San Jose,CA,95117,610000,1,1.0,SAN JOSE,768,1080,1984,21,794,419,Active,September-30-2023 01:00 PM,September-30-2023 05:00 PM,https://www.redfin.com/CA/San-Jose/697-Blackford-Ct-95117/home/1777009,MLSListings,ML81941285,N,Y,37.3145842,-121.9670447
MLS Listing,,Multi-Family (2-4 Unit),958 Del Mar Ave,San Jose,CA,95128,1395000,4,2.0,SAN JOSE,1572,7099,1954,21,887,,Active,,,https://www.redfin.com/CA/San-Jose/958-Del-Mar-Ave-95128/home/727036,MLSListings,ML81941270,N,Y,37.308691,-121.930419
MLS Listing,,Condo/Co-op,8405 Chenin Blanc Ln,San Jose,CA,95135,849000,2,2.0,SAN JOSE,1370,,1978,21,620,1217,Active,,,https://www.redfin.com/CA/San-Jose/8405-Chenin-Blanc-Ln-95135/home/1188128,MLSListings,ML81940701,N,Y,37.2831305,-121.7496918
MLS Listing,,Townhouse,1305 Auzerais Ave,San Jose,CA,95126,730000,2,2.0,SAN JOSE,953,,2002,21,766,354,Active,,,https://www.redfin.com/CA/San-Jose/1305-Auzerais-Ave-95126/home/979461,MLSListings,ML81941268,N,Y,37.3211579,-121.911611
MLS Listing,,Townhouse,529 Lundy Pl,Milpitas,CA,95035,1193495,3,3.0,,1454,,2023,21,821,434,Active,,,https://www.redfin.com/CA/Milpitas/529-Lundy-Pl-95035/home/186423334,"bridgeMLS, Bay East AOR, or Contra Costa AOR",41038545,N,Y,37.4048667,-121.8902342
MLS Listing,,Single Family Residential,1461 Menorca Ct,San Jose,CA,95120,2200000,4,2.0,SAN JOSE,2171,9123,1973,21,1013,,Active,September-30-2023 01:00 PM,September-30-2023 03:00 PM,https://www.redfin.com/CA/San-Jose/1461-Menorca-Ct-95120/home/775373,MLSListings,ML81939091,N,Y,37.2278562,-121.8942151
MLS Listing,,Other,16300 Greenridge Ter,Los Gatos,CA,95032,2675000,,,LOS GATOS,,337814,,22,,600,Active,,,https://www.redfin.com/CA/Los-Gatos/16300-Greenridge-Trl-95032/home/181214741,MLSListings,ML81926956,N,Y,37.2346966,-121.9360245
MLS Listing,,Single Family Residential,1336 Wabash St,Alviso,CA,95002,999000,2,1.0,ALVISO,686,8728,1930,22,1456,,Active,,,https://www.redfin.com/CA/Alviso/1336-Wabash-St-95002/home/905684,MLSListings,ML81941157,N,Y,37.4286243,-121.9714169
MLS Listing,,Condo/Co-op,5214 Makati Cir,San Jose,CA,95123,689950,2,2.0,SAN JOSE,1233,,1985,22,560,635,Active,,,https://www.redfin.com/CA/San-Jose/5214-Makati-Cir-95123/home/1409016,MLSListings,ML81937372,N,Y,37.2492972,-121.8063134
MLS Listing,,Single Family Residential,2231 Golden Crst,San Jose,CA,95125,1199000,4,4.0,SAN JOSE,1787,1546,2004,22,671,209,Active,,,https://www.redfin.com/CA/San-Jose/2231-Golden-Crest-Cmns-95125/home/167457392,MLSListings,ML81941145,N,Y,37.297803,-121.8678465
MLS Listing,,Single Family Residential,3550 Slopeview Dr,San Jose,CA,95148,1599000,3,2.0,SAN JOSE,1528,9631,1982,22,1046,,Active,,,https://www.redfin.com/CA/San-Jose/3550-Slopeview-Dr-95148/home/1061248,MLSListings,ML81941124,N,Y,37.33024,-121.7782889
MLS Listing,,Condo/Co-op,1009 Chagall Way,San Jose,CA,95138,639888,1,1.5,SAN JOSE,1019,,1999,22,628,439,Active,September-30-2023 01:30 PM,September-30-2023 04:00 PM,https://www.redfin.com/CA/San-Jose/1009-Chagall-Way-95138/home/978706,MLSListings,ML81929959,N,Y,37.2428873,-121.764212
MLS Listing,,Single Family Residential,1141 Saratoga Ave,San Jose,CA,95129,5000000,3,3.0,SAN JOSE,1559,6681,2023,22,3207,,Active,,,https://www.redfin.com/CA/San-Jose/1141-Saratoga-Ave-95129/home/187381028,MLSListings,ML81941111,N,Y,37.3043454,-121.9795028
MLS Listing,,Townhouse,1444 Stokes St,San Jose,CA,95126,989000,3,2.5,SAN JOSE,1441,1571,1973,22,686,560,Active,,,https://www.redfin.com/CA/San-Jose/1444-Stokes-St-95126/home/729182,MLSListings,ML81940841,N,Y,37.3035939,-121.9180033
MLS Listing,,Condo/Co-op,1853 Almaden Rd #301,San Jose,CA,95125,1068800,3,2.0,SAN JOSE,1299,,2023,22,823,585,Active,,,https://www.redfin.com/CA/San-Jose/1853-Almaden-Rd-95125/unit-301/home/172950386,MLSListings,ML81941089,N,Y,37.3018575,-121.8801978
MLS Listing,,Condo/Co-op,1821 Almaden Rd #101,San Jose,CA,95125,599800,1,1.0,SAN JOSE,655,,2020,22,916,450,Active,,,https://www.redfin.com/CA/San-Jose/1821-Almaden-Rd-95125/unit-101/home/187380043,MLSListings,ML81941091,N,Y,37.3018252,-121.8798977
MLS Listing,,Condo/Co-op,1853 Almaden Rd #305,San Jose,CA,95125,919800,2,2.0,SAN JOSE,1082,,2023,22,850,562,Active,,,https://www.redfin.com/CA/San-Jose/1853-Almaden-Rd-95125/unit-305/home/172950390,MLSListings,ML81941088,N,Y,37.3018575,-121.8801978
MLS Listing,,Condo/Co-op,1853 Almaden Rd #313,San Jose,CA,95125,797800,2,2.0,SAN JOSE,938,,2023,22,851,550,Active,,,https://www.redfin.com/CA/San-Jose/1853-Almaden-Rd-95125/unit-313/home/172950397,MLSListings,ML81941085,N,Y,37.3018575,-121.8801978
MLS Listing,,Condo/Co-op,1853 Almaden Rd #406,San Jose,CA,95125,861800,2,2.0,SAN JOSE,1049,,2023,22,822,561,Active,,,https://www.redfin.com/CA/San-Jose/1853-Almaden-Rd-95125/unit-406/home/172950410,MLSListings,ML81941086,N,Y,37.3018575,-121.8801978
MLS Listing,,Condo/Co-op,1853 Almaden Rd #408,San Jose,CA,95125,949800,2,2.0,SAN JOSE,1119,,2023,22,849,567,Active,,,https://www.redfin.com/CA/San-Jose/1853-Almaden-Rd-95125/unit-408/home/172950412,MLSListings,ML81941084,N,Y,37.3018575,-121.8801978
MLS Listing,,Condo/Co-op,1853 Almaden Rd #424,San Jose,CA,95125,770800,2,2.0,SAN JOSE,902,,2023,22,855,546,Active,,,https://www.redfin.com/CA/San-Jose/1853-Almaden-Rd-95125/unit-424/home/172950422,MLSListings,ML81941083,N,Y,37.3018575,-121.8801978
MLS Listing,,Condo/Co-op,1853 Almaden Rd #502,San Jose,CA,95125,910800,2,2.0,SAN JOSE,1067,,2023,22,854,562,Active,,,https://www.redfin.com/CA/San-Jose/1853-Almaden-Rd-95125/unit-502/home/172203432,MLSListings,ML81941082,N,Y,37.3018575,-121.8801978
MLS Listing,,Townhouse,31 N Willard Ave,San Jose,CA,95126,1199000,3,2.5,SAN JOSE,1616,1371,2008,22,742,346,Active,September-30-2023 12:00 PM,September-30-2023 03:00 PM,https://www.redfin.com/CA/San-Jose/31-N-Willard-Ave-95126/home/23046054,MLSListings,ML81940451,N,Y,37.3240955,-121.917688
MLS Listing,,Condo/Co-op,280 Tradewinds Dr #4,San Jose,CA,95123,588888,2,1.0,SAN JOSE,959,,1970,22,614,452,Active,September-30-2023 02:30 PM,September-30-2023 04:30 PM,https://www.redfin.com/CA/San-Jose/280-Tradewinds-Dr-95123/unit-4/home/1054184,MLSListings,ML81941021,N,Y,37.2529168,-121.8266848
MLS Listing,,Townhouse,2200 Santoro Ln,San Jose,CA,95124,1299888,3,2.5,,1524,2787,2007,22,853,298,Active,,,https://www.redfin.com/CA/San-Jose/2200-Santoro-Ln-95124/home/17288430,"bridgeMLS, Bay East AOR, or Contra Costa AOR",41038287,N,Y,37.2513477,-121.9370786
MLS Listing,,Condo/Co-op,1445 Fruitdale Ave #317,San Jose,CA,95128,799000,2,2.0,SAN JOSE,1170,,2008,22,683,493,Active,,,https://www.redfin.com/CA/San-Jose/1445-Fruitdale-Ave-95128/unit-317/home/23047495,MLSListings,ML81941001,N,Y,37.3113172,-121.9162433
MLS Listing,,Single Family Residential,379 San Tomas Aquino Rd,San Jose,CA,95130,1850000,3,1.5,SAN JOSE,1231,9991,1955,23,1503,,Active,,,https://www.redfin.com/CA/San-Jose/379-San-Tomas-Aquino-Rd-95130/home/1249866,MLSListings,ML81940984,N,Y,37.2943459,-121.9770149
MLS Listing,,Single Family Residential,218 Copco Ln,San Jose,CA,95123,1299999,4,2.0,SAN JOSE,1400,7268,1966,23,929,,Active,September-30-2023 01:00 PM,September-30-2023 04:00 PM,https://www.redfin.com/CA/San-Jose/218-Copco-Ln-95123/home/1136592,MLSListings,ML81940976,N,Y,37.246845,-121.8130439
MLS Listing,,Single Family Residential,150 N 24th St,San Jose,CA,95116,1177777,4,2.0,SAN JOSE,1780,5035,1905,23,662,,Active,October-1-2023 01:00 PM,October-1-2023 04:00 PM,https://www.redfin.com/CA/San-Jose/150-N-24th-St-95116/home/1569384,MLSListings,ML81940973,N,Y,37.3490576,-121.8694475
MLS Listing,,Single Family Residential,44 N 7th St,San Jose,CA,95112,1799000,3,4.0,SAN JOSE,3372,5743,1891,23,534,,Active,October-1-2023 02:00 PM,October-1-2023 05:00 PM,https://www.redfin.com/CA/San-Jose/44-N-7th-St-95112/home/1216238,MLSListings,ML81940773,N,Y,37.3399536,-121.8843887
MLS Listing,,Single Family Residential,3772 Kersten Dr,San Jose,CA,95124,1598000,3,2.0,SAN JOSE,1824,6212,1959,23,876,,Active,September-30-2023 01:00 PM,September-30-2023 04:00 PM,https://www.redfin.com/CA/San-Jose/3772-Kersten-Dr-95124/home/1419788,MLSListings,ML81940876,N,Y,37.2614184,-121.9126649
MLS Listing,,Single Family Residential,598 Palm Ave,Morgan Hill,CA,95037,2200000,4,2.0,MORGAN HILL,3000,780384,1900,24,733,,Active,,,https://www.redfin.com/CA/Morgan-Hill/598-Palm-Ave-95037/home/40389450,MLSListings,ML81940844,N,Y,37.183415,-121.7066938
MLS Listing,,Condo/Co-op,5322 Cribari Gln,San Jose,CA,95135,500000,2,2.0,SAN JOSE,1223,,1972,24,409,966,Active,,,https://www.redfin.com/CA/San-Jose/5322-Cribari-Gln-95135/home/961205,MLSListings,ML81940832,N,Y,37.297445,-121.757262
MLS Listing,,Single Family Residential,125 S 16th St,San Jose,CA,95112,1340000,5,2.0,SAN JOSE,1604,6456,1912,24,835,,Active,September-30-2023 01:00 PM,September-30-2023 04:00 PM,https://www.redfin.com/CA/San-Jose/125-S-16th-St-95112/home/1698838,MLSListings,ML81940660,N,Y,37.3411223,-121.87385
MLS Listing,,Single Family Residential,1198 Mayette Ave,San Jose,CA,95125,2199000,3,2.5,SAN JOSE,2431,9558,1952,24,905,,Active,September-30-2023 01:00 PM,September-30-2023 03:00 PM,https://www.redfin.com/CA/San-Jose/1198-Mayette-Ave-95125/home/848229,MLSListings,ML81940810,N,Y,37.2856984,-121.8885906
MLS Listing,,Single Family Residential,521 Minnesota Ave,San Jose,CA,95125,2495000,2,2.0,SAN JOSE,1614,12718,1939,24,1546,,Active,,,https://www.redfin.com/CA/San-Jose/521-Minnesota-Ave-95125/home/1403201,MLSListings,ML81940766,N,Y,37.31249,-121.8883461
